,LAT,LON,COUNTY,STATE
0,49.999991692,22.523954953,Przeworsk County,Subcarpathian Voivodeship
1,53.463956144,17.104131138,Złotów County,Greater Poland Voivodeship
2,50.910953918,18.796913024,Kłobuck County,Silesian Voivodeship
3,49.838734283,18.626610947,Cieszyn County,Silesian Voivodeship
4,51.853363465,19.010255125,Poddębice County,Łódzkie Voivodship
5,52.858947838,14.263595714,Gryfino County,West Pomeranian Voivodeship
6,53.412815535,14.378894384,Police County,West Pomeranian Voivodeship
7,51.585926496,15.44518109,Żagań County,Lubusz Voivodeship
8,54.021903144,15.758025485,Białogard County,West Pomeranian Voivodeship
9,53.384653436,15.099115121,Stargard County,West Pomeranian Voivodeship
10,54.010557279,15.20561507,Gryfice County,West Pomeranian Voivodeship
11,51.625612784,14.957519027,Żary County,Lubusz Voivodeship
12,53.859338331,14.94308949,Kamień County,West Pomeranian Voivodeship
13,52.677441241,14.779365231,Gorzów County,Lubusz Voivodeship
14,53.278391333,14.605566565,Gryfino County,West Pomeranian Voivodeship
15,53.297458525,14.577547508,Gryfino County,West Pomeranian Voivodeship
16,53.791650128,15.269900539,Gryfice County,West Pomeranian Voivodeship
17,53.36033096,15.246851165,Stargard County,West Pomeranian Voivodeship
18,51.846786651,14.836339264,Żary County,Lubusz Voivodeship
19,53.495941925,15.021758701,Goleniów County,West Pomeranian Voivodeship
20,51.769109361,15.380060972,Zielona Góra County,Lubusz Voivodeship
21,54.044062503,15.669166337,Colberg County,West Pomeranian Voivodeship
22,53.968175763,15.353179401,Gryfice County,West Pomeranian Voivodeship
23,54.004005758,15.357754738,Gryfice County,West Pomeranian Voivodeship
24,52.520728105,14.644213943,Słubice County,Lubusz Voivodeship
25,53.906876783,15.101229673,Gryfice County,West Pomeranian Voivodeship
26,53.374317059,15.338985918,Stargard County,West Pomeranian Voivodeship
27,51.87547897,16.1505864,Wschowa County,Lubusz Voivodeship
28,53.877905622,16.807143041,Szczecinek County,West Pomeranian Voivodeship
29,54.060559635,15.702049559,Colberg County,West Pomeranian Voivodeship
30,51.081448185,15.815073162,Złotoryja County,Lower Silesian Voivodeship
31,53.786817689,16.822924198,Szczecinek County,West Pomeranian Voivodeship
32,52.941798676,15.73342048,Strzelce-Drezdenko County,Lubusz Voivodeship
33,51.581874622,15.531538921,Żagań County,Lubusz Voivodeship
34,54.105644893,15.892312374,Białogard County,West Pomeranian Voivodeship
35,51.352979291,15.791917432,Bolesławiec County,Lower Silesian Voivodeship
36,52.08869866,15.857692188,Zielona Góra County,Lubusz Voivodeship
37,54.210113435,15.96863609,Koszalin County,West Pomeranian Voivodeship
38,52.333114937,16.36133381,Nowy Tomyśl County,Greater Poland Voivodeship
39,50.721413058,16.481022661,Wałbrzych County,Lower Silesian Voivodeship
40,52.634128332,16.464298979,Szamotuły County,Greater Poland Voivodeship
41,51.277790829,16.530704152,Wołów County,Lower Silesian Voivodeship
42,51.295684951,16.533256198,Wołów County,Lower Silesian Voivodeship
43,51.669567616,15.948428318,Głogów County,Lower Silesian Voivodeship
44,51.806329596,16.75283214,Leszno County,Greater Poland Voivodeship
45,52.648811719,16.525838941,Szamotuły County,Greater Poland Voivodeship
46,52.88136582,16.560710523,Czarnków-Trzcianka County,Greater Poland Voivodeship
47,51.377173727,16.02565012,Polkowice County,Lower Silesian Voivodeship
48,52.469215177,16.174066208,Nowy Tomyśl County,Greater Poland Voivodeship
49,53.381916953,16.305230459,Wałcz County,West Pomeranian Voivodeship
50,52.040508331,16.758889805,Kościan County,Greater Poland Voivodeship
51,52.274677222,16.765096436,Poznań County,Greater Poland Voivodeship
52,51.054603757,16.327173926,Jawor County,Lower Silesian Voivodeship
53,50.808165497,17.434341434,Brzeg County,Opole Voivodeship
54,53.367174172,17.511112213,Sępólno County,Kuyavian-Pomeranian Voivodeship
55,52.233589305,17.730437088,Września County,Greater Poland Voivodeship
56,52.483572827,17.774323172,Gniezno County,Greater Poland Voivodeship
57,54.443143316,17.334121986,Słupsk County,Pomeranian Voivodeship
58,51.957554033,17.243612566,Jarocin County,Greater Poland Voivodeship
59,50.969093932,17.173836933,Oława County,Lower Silesian Voivodeship
60,51.7354075,17.615638993,Krotoszyn County,Greater Poland Voivodeship
61,51.142152684,17.574530945,Namysłów County,Opole Voivodeship
62,50.295840684,17.805316833,Głubczyce County,Opole Voivodeship
63,51.089128316,16.67602553,Środa Śląska County,Lower Silesian Voivodeship
64,51.733120437,16.770967447,Rawicz County,Greater Poland Voivodeship
65,51.116617357,16.823527993,Środa Śląska County,Lower Silesian Voivodeship
66,53.306587889,17.017677257,Złotów County,Greater Poland Voivodeship
67,54.369308104,18.219196923,Kartuzy County,Pomeranian Voivodeship
68,53.202707932,17.542558989,Nakło County,Kuyavian-Pomeranian Voivodeship
69,50.479146657,17.495529324,Nysa County,Opole Voivodeship
70,50.872287968,17.558961738,Brzeg County,Opole Voivodeship
71,51.015226765,17.582359247,Namysłów County,Opole Voivodeship
72,51.134655894,17.688312123,Namysłów County,Opole Voivodeship
73,51.825455643,18.156606923,Kalisz County,Greater Poland Voivodeship
74,52.467775584,18.275362193,Konin County,Greater Poland Voivodeship
75,52.646158841,18.309104661,Inowrocław County,Kuyavian-Pomeranian Voivodeship
76,50.767130791,17.228191098,Strzelin County,Lower Silesian Voivodeship
77,53.145545178,18.405392277,Toruń County,Kuyavian-Pomeranian Voivodeship
78,53.484679065,17.653112256,Sępólno County,Kuyavian-Pomeranian Voivodeship
79,52.057513056,17.083891568,Śrem County,Greater Poland Voivodeship
80,50.038069788,17.875377789,Głubczyce County,Opole Voivodeship
81,50.07379646,17.881295815,Głubczyce County,Opole Voivodeship
82,51.040016113,16.89817857,Wrocław County,Lower Silesian Voivodeship
83,51.102688699,17.625498496,Namysłów County,Opole Voivodeship
84,51.002409182,18.039142651,Kluczbork County,Opole Voivodeship
85,49.99847754,17.924989873,Głubczyce County,Opole Voivodeship
86,50.355682269,17.984972326,Krapkowice County,Opole Voivodeship
87,51.131137016,16.883114656,Wrocław,Lower Silesian Voivodeship
88,50.929306079,16.938866935,Wrocław County,Lower Silesian Voivodeship
89,50.672398976,17.298869812,Brzeg County,Opole Voivodeship
90,51.480310662,17.370091941,Milicz County,Lower Silesian Voivodeship
91,52.963044,17.620560817,Nakło County,Kuyavian-Pomeranian Voivodeship
92,52.734937544,17.223228972,Wągrowiec County,Greater Poland Voivodeship
93,50.171217059,18.038410906,Głubczyce County,Opole Voivodeship
94,50.349783715,18.068852759,Kędzierzyn-Koźle County,Opole Voivodeship
95,50.867512526,18.158775711,Kluczbork County,Opole Voivodeship
96,51.281790578,17.078646216,Trzebnica County,Lower Silesian Voivodeship
97,51.11739112,18.203081769,Kluczbork County,Opole Voivodeship
98,50.407294039,18.022060726,Krapkowice County,Opole Voivodeship
99,52.49106915,18.457776204,Radziejów County,Kuyavian-Pomeranian Voivodeship
100,52.621842787,17.590793514,Gniezno County,Greater Poland Voivodeship
101,54.071616943,18.3450668,Kościerzyna County,Pomeranian Voivodeship
102,53.660359358,17.441344315,Człuchów County,Pomeranian Voivodeship
103,50.906576991,17.307125749,Oława County,Lower Silesian Voivodeship
104,50.802404277,16.948434256,Strzelin County,Lower Silesian Voivodeship
105,51.767993078,17.096569344,Gostyń County,Greater Poland Voivodeship
106,52.378762194,17.992405753,Słupca County,Greater Poland Voivodeship
107,52.717854735,18.054426661,Inowrocław County,Kuyavian-Pomeranian Voivodeship
108,50.918406645,17.680969701,Brzeg County,Opole Voivodeship
109,53.21746843,18.147995338,Bydgoszcz County,Kuyavian-Pomeranian Voivodeship
110,54.019517182,21.449936943,Kętrzyn County,Warmian-Masurian Voivodeship
111,52.714711453,19.337030456,Lipno County,Kuyavian-Pomeranian Voivodeship
112,49.985176369,19.72236189,Kraków County,Lesser Poland Voivodeship
113,52.114251235,17.621549922,Jarocin County,Greater Poland Voivodeship
114,50.430130635,19.814459785,Olkusz County,Lesser Poland Voivodeship
115,52.210900608,16.931836614,Poznań County,Greater Poland Voivodeship
116,50.988427079,18.237523798,Kluczbork County,Opole Voivodeship
117,52.683015703,18.554556976,Radziejów County,Kuyavian-Pomeranian Voivodeship
118,52.718673853,18.561554145,Aleksandrów County,Kuyavian-Pomeranian Voivodeship
119,51.38366721,17.470068717,Oleśnica County,Lower Silesian Voivodeship
120,50.038306147,18.128381552,Racibórz County,Silesian Voivodeship
121,50.270413132,18.168286658,Kędzierzyn-Koźle County,Opole Voivodeship
122,51.776726919,17.535149572,Krotoszyn County,Greater Poland Voivodeship
123,52.080401837,17.58640263,Jarocin County,Greater Poland Voivodeship
124,51.333683553,17.115536312,Trzebnica County,Lower Silesian Voivodeship
125,51.623150423,17.945571294,Ostrów Wielkopolski County,Greater Poland Voivodeship
126,52.645244492,18.576946637,Radziejów County,Kuyavian-Pomeranian Voivodeship
127,50.964486835,18.319293682,Kluczbork County,Opole Voivodeship
128,51.481885803,18.413842179,Sieradz County,Łódzkie Voivodship
129,52.373578777,18.583226546,Konin County,Greater Poland Voivodeship
130,51.841261853,21.797611878,Garwolin County,Masovian Voivodeship
131,50.433086499,18.168198512,Strzelce County,Opole Voivodeship
132,52.14268457,19.245796547,Łęczyca County,Łódzkie Voivodship
133,51.022093136,18.272254771,Kluczbork County,Opole Voivodeship
134,51.039938436,18.275459269,Kluczbork County,Opole Voivodeship
135,52.979390251,19.424284359,Rypin County,Kuyavian-Pomeranian Voivodeship
136,53.552291404,19.734384442,Iława County,Warmian-Masurian Voivodeship
137,53.605643601,19.746678081,Iława County,Warmian-Masurian Voivodeship
138,53.348381735,19.566390329,Nowe Miasto County,Warmian-Masurian Voivodeship
139,53.579651688,19.618655275,Iława County,Warmian-Masurian Voivodeship
140,53.361426814,19.630012332,Nowe Miasto County,Warmian-Masurian Voivodeship
141,53.233466907,20.509768506,Nidzica County,Warmian-Masurian Voivodeship
142,53.339987382,20.536063051,Nidzica County,Warmian-Masurian Voivodeship
143,52.754146337,19.524970507,Sierpc County,Masovian Voivodeship
144,52.289632051,20.313271445,Sochaczew County,Masovian Voivodeship
145,53.038832415,19.587857556,Rypin County,Kuyavian-Pomeranian Voivodeship
146,52.968576633,21.22910742,Maków County,Masovian Voivodeship
147,53.213114591,20.535066525,Mława County,Masovian Voivodeship
148,50.264381916,18.251997781,Kędzierzyn-Koźle County,Opole Voivodeship
149,50.478571696,18.289641801,Strzelce County,Opole Voivodeship
150,50.224750181,19.884945742,Kraków County,Lesser Poland Voivodeship
151,53.189202898,18.806075826,Wąbrzeźno County,Kuyavian-Pomeranian Voivodeship
152,49.911591985,19.735465219,Wadowice County,Lesser Poland Voivodeship
153,52.433997567,21.121492924,Wołomin County,Masovian Voivodeship
154,52.646748981,21.175834971,Pułtusk County,Masovian Voivodeship
155,54.167462411,21.615220246,Węgorzewo County,Warmian-Masurian Voivodeship
156,51.761553864,20.132926374,Skierniewice County,Łódzkie Voivodship
157,53.236058949,20.480088269,Nidzica County,Warmian-Masurian Voivodeship
158,49.795109013,18.954806444,Bielsko County,Silesian Voivodeship
159,51.835403421,19.240885197,Zgierz County,Łódzkie Voivodship
160,51.416697489,19.271614425,Bełchatów County,Łódzkie Voivodship
161,52.235697207,19.442569532,Kutno County,Łódzkie Voivodship
162,52.035959075,18.988344399,Łęczyca County,Łódzkie Voivodship
163,50.460887532,18.769073786,Tarnowskie Góry County,Silesian Voivodeship
164,51.147035244,18.784490761,Pajęczno County,Łódzkie Voivodship
165,50.152711418,21.059057961,Dąbrowa County,Lesser Poland Voivodeship
166,51.868958639,19.042688246,Poddębice County,Łódzkie Voivodship
167,51.940218604,19.057103924,Poddębice County,Łódzkie Voivodship
168,53.640979949,19.296720902,Iława County,Warmian-Masurian Voivodeship
169,50.520341157,20.432195324,Pińczów County,Świętokrzyskie Voivodeship
170,50.635732505,21.317085022,Staszów County,Świętokrzyskie Voivodeship
171,50.742120504,21.343096463,Opatów County,Świętokrzyskie Voivodeship
172,53.240156756,19.330419725,Brodnica County,Kuyavian-Pomeranian Voivodeship
173,53.430737721,21.90108808,Kolno County,Podlaskie Voivodeship
174,51.532259524,19.848380016,Piotrków County,Łódzkie Voivodship
175,50.854054561,21.313026079,Opatów County,Świętokrzyskie Voivodeship
176,50.23079463,19.603056824,Olkusz County,Lesser Poland Voivodeship
177,51.712547577,19.858592955,County Lodzki,Łódzkie Voivodship
178,54.195850951,21.312315803,Kętrzyn County,Warmian-Masurian Voivodeship
179,50.780357831,21.323727891,Opatów County,Świętokrzyskie Voivodeship
180,53.345209568,22.029622278,Kolno County,Podlaskie Voivodeship
181,53.205760315,20.200088241,Działdowo County,Warmian-Masurian Voivodeship
182,53.29806694,21.955319089,Kolno County,Podlaskie Voivodeship
183,50.251185017,22.391369909,Leżajsk County,Subcarpathian Voivodeship
184,50.940662247,22.577014443,Lublin County,Lublin Voivodeship
185,51.205700933,22.650251673,Lublin County,Lublin Voivodeship
186,52.988205684,23.171879781,Białystok County,Podlaskie Voivodeship
187,53.390328322,23.32768769,Sokółka County,Podlaskie Voivodeship
188,51.172375305,23.427531835,Chełm County,Lublin Voivodeship
189,54.129731344,22.724152771,Suwałki County,Podlaskie Voivodeship
190,52.960809604,23.254484348,Białystok County,Podlaskie Voivodeship
191,53.436588504,23.403698773,Sokółka County,Podlaskie Voivodeship
192,51.208798173,22.621992135,Lublin County,Lublin Voivodeship
193,53.44976035,23.28507705,Sokółka County,Podlaskie Voivodeship
194,53.040941431,22.33806845,Zambrów County,Podlaskie Voivodeship
195,50.19741136,23.032694498,Lubaczów County,Subcarpathian Voivodeship
196,50.268027913,23.052354145,Lubaczów County,Subcarpathian Voivodeship
197,53.888845431,22.588447436,Ełk County,Warmian-Masurian Voivodeship
198,52.840459185,22.340995869,Wysokie Mazowieckie County,Podlaskie Voivodeship
199,50.677170286,23.138916843,Zamość County,Lublin Voivodeship
200,52.648330781,22.947905138,Bielsk County,Podlaskie Voivodeship
201,51.672436137,23.518441919,Włodawa County,Lublin Voivodeship
202,50.875913808,23.311622663,Zamość County,Lublin Voivodeship
203,50.893549148,23.316743518,Zamość County,Lublin Voivodeship
204,51.108941784,22.536229951,Lublin County,Lublin Voivodeship
205,51.300230635,22.618269688,Lublin County,Lublin Voivodeship
206,52.536091067,22.974516442,Siemiatycze County,Podlaskie Voivodeship
207,51.186091058,18.503596533,Wieluń County,Łódzkie Voivodship
208,51.483355552,19.343369959,Bełchatów County,Łódzkie Voivodship
209,51.799683611,21.110175325,Grójec County,Masovian Voivodeship
210,52.521159047,18.790339269,Włocławek County,Kuyavian-Pomeranian Voivodeship
211,50.102658596,19.182009463,Bieruń-Lędziny County,Silesian Voivodeship
212,50.908895977,19.284204658,Częstochowa County,Silesian Voivodeship
213,51.033571465,19.309351852,Częstochowa County,Silesian Voivodeship
214,51.318502061,19.367466453,Bełchatów County,Łódzkie Voivodship
215,51.371272717,21.034107353,Radom County,Masovian Voivodeship
216,53.558959268,18.9436834,Grudziądz County,Kuyavian-Pomeranian Voivodeship
217,51.665501602,18.622863515,Sieradz County,Łódzkie Voivodship
218,50.643370356,22.956507679,Zamość County,Lublin Voivodeship
219,51.811055215,23.264774905,Biała Podlaska County,Lublin Voivodeship
220,53.327260193,22.207578506,Kolno County,Podlaskie Voivodeship
221,54.084031662,22.461271627,Olecko County,Warmian-Masurian Voivodeship
222,52.674598401,22.534331065,Wysokie Mazowieckie County,Podlaskie Voivodeship
223,53.133755495,22.66891625,Wysokie Mazowieckie County,Podlaskie Voivodeship
224,51.296063641,22.821398206,Łęczna County,Lublin Voivodeship
225,51.257604036,22.839692315,Świdnik County,Lublin Voivodeship
226,53.482797791,23.479883498,Sokółka County,Podlaskie Voivodeship
227,50.761505936,23.509743855,Zamość County,Lublin Voivodeship
228,49.781778715,21.676722206,Krosno County,Subcarpathian Voivodeship
229,51.219166394,22.013708238,Opole Lubelskie County,Lublin Voivodeship
230,52.951900279,22.494074312,Wysokie Mazowieckie County,Podlaskie Voivodeship
231,49.560543219,21.706978784,Krosno County,Subcarpathian Voivodeship
232,53.175306211,22.620382278,Białystok County,Podlaskie Voivodeship
233,50.447058493,23.849137249,Tomaszów Lubelski County,Lublin Voivodeship
234,51.113453379,19.873652164,Piotrków County,Łódzkie Voivodship
235,54.217169372,21.47366125,Kętrzyn County,Warmian-Masurian Voivodeship
236,53.286597168,19.431399489,Brodnica County,Kuyavian-Pomeranian Voivodeship
237,52.434418596,19.218025759,Włocławek County,Kuyavian-Pomeranian Voivodeship
238,50.672321866,23.022253081,Zamość County,Lublin Voivodeship
239,50.384693067,21.284802967,Mielec County,Subcarpathian Voivodeship
240,51.979630406,21.686588747,Garwolin County,Masovian Voivodeship
241,50.464474902,20.448225791,Pińczów County,Świętokrzyskie Voivodeship
242,49.738918305,18.748488591,Cieszyn County,Silesian Voivodeship
243,49.907943038,19.566008035,Wadowice County,Lesser Poland Voivodeship
244,50.477660504,19.682104202,Zawiercie County,Silesian Voivodeship
245,49.988980386,19.244476085,Oświęcim County,Lesser Poland Voivodeship
246,50.40328657,20.121600256,powiat miechowski,Lesser Poland Voivodeship
247,51.167999959,21.071857457,Starachowice County,Świętokrzyskie Voivodeship
248,51.277151235,21.069359421,Radom County,Masovian Voivodeship
249,53.93189345,21.796691735,Giżycko County,Warmian-Masurian Voivodeship
250,49.964535636,18.396563986,Wodzisław County,Silesian Voivodeship
251,50.451659843,20.189007513,powiat miechowski,Lesser Poland Voivodeship
252,52.356789253,19.735392192,Płock County,Masovian Voivodeship
253,53.192584238,19.924629998,Działdowo County,Warmian-Masurian Voivodeship
254,50.667508688,20.207670682,Jędrzejów County,Świętokrzyskie Voivodeship
255,50.390442823,20.06196255,powiat miechowski,Lesser Poland Voivodeship
256,51.569966553,18.691896588,Sieradz County,Łódzkie Voivodship
257,53.066915496,18.991722218,Golub-Dobrzyń County,Kuyavian-Pomeranian Voivodeship
258,53.494377464,19.082089478,Grudziądz County,Kuyavian-Pomeranian Voivodeship
259,52.712815231,18.888659441,Włocławek County,Kuyavian-Pomeranian Voivodeship
260,53.318512769,19.014363179,Wąbrzeźno County,Kuyavian-Pomeranian Voivodeship
261,50.941341258,22.403554415,Kraśnik County,Lublin Voivodeship
262,54.180693653,22.584001225,Suwałki County,Podlaskie Voivodeship
263,49.889008602,22.862707962,Jarosław County,Subcarpathian Voivodeship
264,50.843714422,21.598506808,Opatów County,Świętokrzyskie Voivodeship
265,51.141895526,22.399966853,Lublin County,Lublin Voivodeship
266,51.318669784,22.448304808,Lublin County,Lublin Voivodeship
267,51.389369793,22.46776932,Lublin County,Lublin Voivodeship
268,53.595958826,23.115770699,Sokółka County,Podlaskie Voivodeship
269,51.086165628,23.227502913,Chełm County,Lublin Voivodeship
270,52.041966038,21.969419822,Siedlce County,Masovian Voivodeship
271,50.850318742,22.234650085,Kraśnik County,Lublin Voivodeship
272,50.999019891,23.812559202,Chełm County,Lublin Voivodeship
273,51.041862896,22.314835142,Lublin County,Lublin Voivodeship
274,51.129516266,23.007210792,Świdnik County,Lublin Voivodeship
275,52.772600093,23.468569678,Hajnówka County,Podlaskie Voivodeship
276,51.153997233,22.287006563,Lublin County,Lublin Voivodeship
277,52.712045036,22.695762408,Bielsk County,Podlaskie Voivodeship
278,52.906240709,22.753072858,Białystok County,Podlaskie Voivodeship
279,52.620637729,22.699064979,Siemiatycze County,Podlaskie Voivodeship
280,52.511608575,23.357558518,Hajnówka County,Podlaskie Voivodeship
281,50.698692905,23.577959983,Zamość County,Lublin Voivodeship
282,50.477245849,23.599346572,Tomaszów Lubelski County,Lublin Voivodeship
283,52.668410542,22.592706022,Wysokie Mazowieckie County,Podlaskie Voivodeship
284,50.741553456,23.677332177,Hrubieszów County,Lublin Voivodeship
285,53.039224953,22.701618031,Wysokie Mazowieckie County,Podlaskie Voivodeship
286,51.336861493,22.278215501,Lublin County,Lublin Voivodeship
287,50.915802254,22.801724687,Krasnystaw County,Lublin Voivodeship
288,53.456483914,22.888302588,Mońki County,Podlaskie Voivodeship
289,52.39477535,23.261868411,Siemiatycze County,Podlaskie Voivodeship
290,51.511064017,19.669114449,Piotrków County,Łódzkie Voivodship
291,53.266595842,20.12367104,Działdowo County,Warmian-Masurian Voivodeship
292,51.264279737,19.58781302,Piotrków County,Łódzkie Voivodship
293,51.892826976,19.868960682,Brzeziny County,Łódzkie Voivodship
294,51.9663926,19.855827535,Łowicz County,Łódzkie Voivodship
295,52.390710193,19.980441429,Płock County,Masovian Voivodeship
296,50.51353308,18.551535332,Gliwice County,Silesian Voivodeship
297,51.226930776,18.684349248,Wieluń County,Łódzkie Voivodship
298,52.545864443,18.943976461,Włocławek County,Kuyavian-Pomeranian Voivodeship
299,54.146291395,19.316946155,Elbląg County,Warmian-Masurian Voivodeship
300,53.365218958,19.115184281,Brodnica County,Kuyavian-Pomeranian Voivodeship
301,53.543289048,19.153462693,Grudziądz County,Kuyavian-Pomeranian Voivodeship
302,54.201997,19.298534781,Nowy Dwór Gdański County,Pomeranian Voivodeship
303,54.059673519,21.213203718,Kętrzyn County,Warmian-Masurian Voivodeship
304,51.402575244,21.274791185,Radom County,Masovian Voivodeship
305,50.446657261,20.244867382,powiat miechowski,Lesser Poland Voivodeship
306,50.518671431,18.723031818,Tarnowskie Góry County,Silesian Voivodeship
307,51.668099995,15.977255518,Głogów County,Lower Silesian Voivodeship
308,49.938857692,22.904618773,Jarosław County,Subcarpathian Voivodeship
309,54.097573044,22.683121006,Suwałki County,Podlaskie Voivodeship
310,50.740303794,17.366502981,Brzeg County,Opole Voivodeship
311,50.738202748,20.022702773,Włoszczowa County,Świętokrzyskie Voivodeship
312,50.345934824,19.740092227,Olkusz County,Lesser Poland Voivodeship
313,54.208171253,19.454656502,Elbląg,Warmian-Masurian Voivodeship
314,52.672330742,17.361577104,Gniezno County,Greater Poland Voivodeship
315,54.153436156,16.021971612,Koszalin County,West Pomeranian Voivodeship
316,52.717507521,18.322695749,Inowrocław County,Kuyavian-Pomeranian Voivodeship
317,53.004545879,19.09896308,Golub-Dobrzyń County,Kuyavian-Pomeranian Voivodeship
318,52.250922383,19.919224537,Łowicz County,Łódzkie Voivodship
319,52.493723434,18.161589698,Konin County,Greater Poland Voivodeship
320,50.286185433,17.408425198,Nysa County,Opole Voivodeship
321,53.474529224,20.020978475,Ostróda County,Warmian-Masurian Voivodeship
322,50.659183594,18.777834787,Lubliniec County,Silesian Voivodeship
323,53.380352743,16.33518413,Wałcz County,West Pomeranian Voivodeship
324,51.575675886,21.727878124,Ryki County,Lublin Voivodeship
325,51.455304411,19.68629,Piotrków County,Łódzkie Voivodship
326,53.867210456,15.187883756,Gryfice County,West Pomeranian Voivodeship
327,52.698614333,21.00925674,Pułtusk County,Masovian Voivodeship
328,50.816827092,17.578486229,Brzeg County,Opole Voivodeship
329,50.109367523,19.098684005,Bieruń-Lędziny County,Silesian Voivodeship
330,53.745591662,15.081759702,Goleniów County,West Pomeranian Voivodeship
331,51.225043089,15.057757385,Zgorzelec County,Lower Silesian Voivodeship
332,51.132877042,21.613863485,Lipsko County,Masovian Voivodeship
333,50.38730689,19.890747953,powiat miechowski,Lesser Poland Voivodeship
334,50.452963495,23.649700687,Tomaszów Lubelski County,Lublin Voivodeship
335,51.780339315,19.697781307,Brzeziny County,Łódzkie Voivodship
336,53.33108377,22.697293451,Mońki County,Podlaskie Voivodeship
337,51.202427291,19.459247744,Radomsko County,Łódzkie Voivodship
338,51.333911787,18.704712543,Wieluń County,Łódzkie Voivodship
339,50.247369565,19.833024745,Kraków County,Lesser Poland Voivodeship
340,51.109279315,18.316712089,Olesno County,Opole Voivodeship
341,53.132950455,18.583639536,Toruń County,Kuyavian-Pomeranian Voivodeship
342,51.718857118,16.042076402,Głogów County,Lower Silesian Voivodeship
343,50.525052545,18.638923608,Tarnowskie Góry County,Silesian Voivodeship
344,54.165999488,21.242038335,Kętrzyn County,Warmian-Masurian Voivodeship
345,50.515628965,19.661484643,Zawiercie County,Silesian Voivodeship
346,51.156282692,17.634393685,Namysłów County,Opole Voivodeship
347,52.633015267,17.117291525,Wągrowiec County,Greater Poland Voivodeship
348,50.641262045,24.051752958,Hrubieszów County,Lublin Voivodeship
349,51.124303575,21.698659526,Lipsko County,Masovian Voivodeship
350,50.738033776,18.450012301,Olesno County,Opole Voivodeship
351,53.236052407,19.148116395,Brodnica County,Kuyavian-Pomeranian Voivodeship
352,51.563524639,18.777905954,Sieradz County,Łódzkie Voivodship
353,53.012905255,20.335211889,Mława County,Masovian Voivodeship
354,50.415100752,17.910074111,Krapkowice County,Opole Voivodeship
355,52.364286489,17.664650522,Września County,Greater Poland Voivodeship
356,50.006367497,18.319622801,Wodzisław County,Silesian Voivodeship
357,53.486345716,22.253563927,Grajewo County,Podlaskie Voivodeship
358,52.087188718,19.028133959,Łęczyca County,Łódzkie Voivodship
359,51.561994919,16.281827703,Lubin County,Lower Silesian Voivodeship
360,50.621719267,19.027311399,Lubliniec County,Silesian Voivodeship
361,52.14614419,16.804280818,Śrem County,Greater Poland Voivodeship
362,50.724741003,23.816888695,Hrubieszów County,Lublin Voivodeship
363,50.842180785,17.182764708,Strzelin County,Lower Silesian Voivodeship
364,51.229001186,23.094053367,Chełm County,Lublin Voivodeship
365,51.512012066,18.245265113,Ostrzeszów County,Greater Poland Voivodeship
366,50.407369568,19.440305761,Zawiercie County,Silesian Voivodeship
367,50.401028463,19.297051619,Zawiercie County,Silesian Voivodeship
368,50.570756986,20.072296148,Jędrzejów County,Świętokrzyskie Voivodeship
369,51.25396877,21.12178945,Radom County,Masovian Voivodeship
370,51.271208998,15.982946037,Legnica County,Lower Silesian Voivodeship
371,51.773769204,23.430952424,Biała Podlaska County,Lublin Voivodeship
372,51.795787481,22.581148832,Radzyń Podlaski County,Lublin Voivodeship
373,52.582887664,17.049820911,Poznań County,Greater Poland Voivodeship
374,50.893783761,22.506341175,Janów Lubelski County,Lublin Voivodeship
375,54.16001268,19.134618148,Nowy Dwór Gdański County,Pomeranian Voivodeship
376,52.039890709,19.400989582,Łęczyca County,Łódzkie Voivodship
377,51.338276597,21.375225736,Radom County,Masovian Voivodeship
378,51.424884893,17.390045884,Milicz County,Lower Silesian Voivodeship
379,53.500856642,19.235564014,Nowe Miasto County,Warmian-Masurian Voivodeship
380,53.552287679,19.033606264,Grudziądz County,Kuyavian-Pomeranian Voivodeship
381,49.811503425,21.74040159,Strzyżów County,Subcarpathian Voivodeship
382,52.036570551,19.665214428,Łowicz County,Łódzkie Voivodship
383,54.497594388,16.692207566,Sławno County,West Pomeranian Voivodeship
384,54.496408032,17.933764745,Wejherowo County,Pomeranian Voivodeship
385,52.367692153,18.907783573,Włocławek County,Kuyavian-Pomeranian Voivodeship
386,50.304056769,17.947969776,Kędzierzyn-Koźle County,Opole Voivodeship
387,51.194257976,19.775447529,Piotrków County,Łódzkie Voivodship
388,51.745605847,16.220113532,Wschowa County,Lubusz Voivodeship
389,54.623612546,17.335276722,Słupsk County,Pomeranian Voivodeship
390,51.647171353,14.872963693,Żary County,Lubusz Voivodeship
391,52.151142789,16.716946822,Kościan County,Greater Poland Voivodeship
392,52.860495104,22.497753307,Wysokie Mazowieckie County,Podlaskie Voivodeship
393,51.894370675,21.811680246,Garwolin County,Masovian Voivodeship
394,50.275331014,20.917367991,Dąbrowa County,Lesser Poland Voivodeship
395,52.534646192,16.301643912,Szamotuły County,Greater Poland Voivodeship
396,53.952022111,19.488883266,Elbląg County,Warmian-Masurian Voivodeship
397,50.986358225,16.890169159,Wrocław County,Lower Silesian Voivodeship
398,51.157082282,21.185109119,Radom County,Masovian Voivodeship
399,53.424307906,23.185038887,Sokółka County,Podlaskie Voivodeship
400,52.623724495,18.870531008,Włocławek County,Kuyavian-Pomeranian Voivodeship
401,53.407524354,16.15800995,Drawsko County,West Pomeranian Voivodeship
402,50.240120591,19.916499475,Kraków County,Lesser Poland Voivodeship
403,52.820923342,18.133275399,Inowrocław County,Kuyavian-Pomeranian Voivodeship
404,50.718517726,19.617833079,Częstochowa County,Silesian Voivodeship
405,51.22617203,15.80464907,Złotoryja County,Lower Silesian Voivodeship
406,54.285692443,16.935709854,Słupsk County,Pomeranian Voivodeship
407,50.178188528,23.198485894,Lubaczów County,Subcarpathian Voivodeship
408,52.881056749,19.522873552,Sierpc County,Masovian Voivodeship
409,50.165282883,18.121962308,Racibórz County,Silesian Voivodeship
410,52.856688445,21.260211535,Maków County,Masovian Voivodeship
411,53.426737119,15.375712309,Stargard County,West Pomeranian Voivodeship
412,54.157062059,20.526258814,Lidzbark County,Warmian-Masurian Voivodeship
413,50.915343051,21.963020312,Kraśnik County,Lublin Voivodeship
414,51.700063447,15.313810923,Żagań County,Lubusz Voivodeship
415,50.230801113,20.226228693,Proszowice County,Lesser Poland Voivodeship
416,51.112941063,16.249136096,Legnica County,Lower Silesian Voivodeship
417,52.168876543,15.692204372,Zielona Góra County,Lubusz Voivodeship
418,51.927661596,16.186932168,Leszno County,Greater Poland Voivodeship
419,50.240335072,17.824370049,Głubczyce County,Opole Voivodeship
420,52.906094856,18.209137768,Inowrocław County,Kuyavian-Pomeranian Voivodeship
421,52.860425372,17.811761044,Żnin County,Kuyavian-Pomeranian Voivodeship
422,51.936054826,21.203140145,Piaseczno County,Masovian Voivodeship
423,49.513627769,21.807648185,Krosno County,Subcarpathian Voivodeship
424,52.061933699,14.859573365,Krosno Odrzańskie County,Lubusz Voivodeship
425,52.958632442,22.253887821,Zambrów County,Podlaskie Voivodeship
426,50.974346087,17.088757009,Wrocław County,Lower Silesian Voivodeship
427,51.17743837,21.712292516,Lipsko County,Masovian Voivodeship
428,51.777951078,19.726543277,Brzeziny County,Łódzkie Voivodship
429,51.543132437,21.690140428,Kozienice County,Masovian Voivodeship
430,54.118842124,19.897807859,Braniewo County,Warmian-Masurian Voivodeship
431,50.930515648,21.274140079,Ostrowiec County,Świętokrzyskie Voivodeship
432,50.899709717,21.583773639,Opatów County,Świętokrzyskie Voivodeship
433,54.173199533,21.554669935,Kętrzyn County,Warmian-Masurian Voivodeship
434,52.608089189,18.837581313,Włocławek County,Kuyavian-Pomeranian Voivodeship
435,49.815204273,22.870996,Przemyśl County,Subcarpathian Voivodeship
436,51.223261417,20.071016825,Opoczno County,Łódzkie Voivodship
437,50.430049234,18.93361625,Tarnowskie Góry County,Silesian Voivodeship
438,50.286261575,18.199292677,Kędzierzyn-Koźle County,Opole Voivodeship
439,53.495462893,15.837935483,Drawsko County,West Pomeranian Voivodeship
440,54.350231604,20.171073565,Braniewo County,Warmian-Masurian Voivodeship
441,52.786336803,19.113046838,Lipno County,Kuyavian-Pomeranian Voivodeship
442,54.272662071,22.924759979,Suwałki County,Podlaskie Voivodeship
443,52.845587993,18.556649289,Aleksandrów County,Kuyavian-Pomeranian Voivodeship
444,51.474618299,16.558912632,Wołów County,Lower Silesian Voivodeship
445,52.937309854,22.45956856,Wysokie Mazowieckie County,Podlaskie Voivodeship
446,52.487456679,20.121550383,Płock County,Masovian Voivodeship
447,51.340882881,23.389764796,Chełm County,Lublin Voivodeship
448,50.827981093,21.392985156,Opatów County,Świętokrzyskie Voivodeship
449,53.331913198,23.523653769,Sokółka County,Podlaskie Voivodeship
450,53.820851671,15.425850198,Łobez County,West Pomeranian Voivodeship
451,53.714482449,19.282362313,Iława County,Warmian-Masurian Voivodeship
452,50.323971251,18.177564824,Kędzierzyn-Koźle County,Opole Voivodeship
453,52.235578959,19.886188766,Łowicz County,Łódzkie Voivodship
454,52.627497292,22.971770495,Bielsk County,Podlaskie Voivodeship
455,53.060219691,19.080621758,Golub-Dobrzyń County,Kuyavian-Pomeranian Voivodeship
456,50.863901456,18.702039531,Kłobuck County,Silesian Voivodeship
457,51.035065457,21.502265914,Ostrowiec County,Świętokrzyskie Voivodeship
458,51.071978152,15.642063519,Lwówek Śląski County,Lower Silesian Voivodeship
459,53.000223351,21.841975789,Ostrołęka County,Masovian Voivodeship
460,52.24528541,17.261083689,Środa Wielkopolska County,Greater Poland Voivodeship
461,52.540877826,20.342644515,Płońsk County,Masovian Voivodeship
462,50.631951739,20.199867852,Jędrzejów County,Świętokrzyskie Voivodeship
463,52.248828918,19.504520889,Kutno County,Łódzkie Voivodship
464,54.217996813,16.523911993,Koszalin County,West Pomeranian Voivodeship
465,51.351774828,16.166424306,Lubin County,Lower Silesian Voivodeship
466,50.471443597,20.763445003,Busko County,Świętokrzyskie Voivodeship
467,53.250835606,22.063822495,Łomża County,Podlaskie Voivodeship
468,52.232268239,19.707953556,Kutno County,Łódzkie Voivodship
469,50.575833979,17.937231293,Opole County,Opole Voivodeship
470,50.521506941,19.805150553,Zawiercie County,Silesian Voivodeship
471,51.249353856,22.749876159,Świdnik County,Lublin Voivodeship
472,53.445105495,23.65213911,Sokółka County,Podlaskie Voivodeship
473,50.863572578,17.128947257,Oława County,Lower Silesian Voivodeship
474,50.444470928,17.744974625,Prudnik County,Opole Voivodeship
475,52.376440714,17.755440504,Gniezno County,Greater Poland Voivodeship
476,54.009106999,20.766773859,Olsztyn County,Warmian-Masurian Voivodeship
477,51.918048423,23.444985185,Biała Podlaska County,Lublin Voivodeship
478,52.359352023,16.542050928,Poznań County,Greater Poland Voivodeship
479,52.982376491,14.335382452,Gryfino County,West Pomeranian Voivodeship
480,51.407879143,22.122214823,Puławy County,Lublin Voivodeship
481,51.063848905,18.193537656,Kluczbork County,Opole Voivodeship
482,54.206636707,18.742956397,Gdańsk County,Pomeranian Voivodeship
483,51.404476968,17.704853491,Ostrów Wielkopolski County,Greater Poland Voivodeship
484,53.34535564,20.263891899,Nidzica County,Warmian-Masurian Voivodeship
485,53.596633702,16.33708683,Szczecinek County,West Pomeranian Voivodeship
486,50.04689646,22.593201021,Przeworsk County,Subcarpathian Voivodeship
487,51.261073731,23.132512927,Łęczna County,Lublin Voivodeship
488,53.67166675,21.477760508,Pisz County,Warmian-Masurian Voivodeship
489,50.46868027,17.919100876,Krapkowice County,Opole Voivodeship
490,54.328629511,17.437488919,Słupsk County,Pomeranian Voivodeship
491,53.249321029,19.211434287,Brodnica County,Kuyavian-Pomeranian Voivodeship
492,53.280034168,22.834660446,Mońki County,Podlaskie Voivodeship
493,50.535106179,23.875457414,Tomaszów Lubelski County,Lublin Voivodeship
494,51.178583105,16.689015508,Środa Śląska County,Lower Silesian Voivodeship
495,50.701849709,19.814576056,Zawiercie County,Silesian Voivodeship
496,52.832783356,18.733639467,Aleksandrów County,Kuyavian-Pomeranian Voivodeship
497,54.124443987,18.87990612,Malbork County,Pomeranian Voivodeship
498,53.486825037,19.871592761,Iława County,Warmian-Masurian Voivodeship
499,53.158270518,22.950219271,Białystok County,Podlaskie Voivodeship
500,52.398804397,19.210563988,Włocławek County,Kuyavian-Pomeranian Voivodeship
501,53.139933325,14.920334304,Pyrzyce County,West Pomeranian Voivodeship
502,51.471125851,15.95138437,Polkowice County,Lower Silesian Voivodeship
503,52.816952481,17.923413238,Mogilno County,Kuyavian-Pomeranian Voivodeship
504,50.400266678,17.596164423,Prudnik County,Opole Voivodeship
505,54.328264182,21.255218486,Kętrzyn County,Warmian-Masurian Voivodeship
506,51.427329273,18.664605559,Sieradz County,Łódzkie Voivodship
507,52.291347048,14.972822975,Sulęcin County,Lubusz Voivodeship
508,50.410633424,17.711086517,Prudnik County,Opole Voivodeship
509,50.565217063,19.928434738,Jędrzejów County,Świętokrzyskie Voivodeship
510,51.306515352,21.512729894,Zwoleń County,Masovian Voivodeship
511,50.426373474,22.781469398,Biłgoraj County,Lublin Voivodeship
512,50.977855931,19.326838508,Częstochowa County,Silesian Voivodeship
513,50.14543687,18.14673893,Racibórz County,Silesian Voivodeship
514,51.561363316,18.806570757,Sieradz County,Łódzkie Voivodship
515,52.931768462,16.628096917,Czarnków-Trzcianka County,Greater Poland Voivodeship
516,51.948351539,18.208304168,Kalisz County,Greater Poland Voivodeship
517,53.29754233,23.665752977,Sokółka County,Podlaskie Voivodeship
518,50.334966655,20.277307341,powiat miechowski,Lesser Poland Voivodeship
519,52.274814365,21.824413692,Węgrów County,Masovian Voivodeship
520,53.329640201,16.930923433,Złotów County,Greater Poland Voivodeship
521,51.172267657,17.665830399,Oleśnica County,Lower Silesian Voivodeship
522,52.722884811,18.502706635,Inowrocław County,Kuyavian-Pomeranian Voivodeship
523,52.933306867,19.083967446,Lipno County,Kuyavian-Pomeranian Voivodeship
524,54.020471006,15.788449701,Białogard County,West Pomeranian Voivodeship
525,54.019388043,19.319362672,Sztum County,Pomeranian Voivodeship
526,51.607489268,22.969113161,Parczew County,Lublin Voivodeship
527,50.77166242,20.259288079,Jędrzejów County,Świętokrzyskie Voivodeship
528,52.103132087,18.060424407,Konin County,Greater Poland Voivodeship
529,52.17684373,16.897137516,Śrem County,Greater Poland Voivodeship
530,54.193764243,21.529334147,Kętrzyn County,Warmian-Masurian Voivodeship
531,52.455663389,21.27614395,Wołomin County,Masovian Voivodeship
532,50.26247169,18.025689863,Kędzierzyn-Koźle County,Opole Voivodeship
533,51.378115985,19.524766698,Piotrków County,Łódzkie Voivodship
534,53.131787943,16.59877638,Piła County,Greater Poland Voivodeship
535,51.619618925,17.450861035,Milicz County,Lower Silesian Voivodeship
536,51.619718511,17.160422652,Rawicz County,Greater Poland Voivodeship
537,54.007997897,20.982812918,Olsztyn County,Warmian-Masurian Voivodeship
538,50.327354524,17.330140285,Nysa County,Opole Voivodeship
539,52.172951434,19.547290445,Kutno County,Łódzkie Voivodship
540,53.191923391,21.925545516,Łomża County,Podlaskie Voivodeship
541,53.736016634,23.49973821,Augustów County,Podlaskie Voivodeship
542,50.834748248,17.010350174,Strzelin County,Lower Silesian Voivodeship
543,52.503337232,18.786768985,Włocławek County,Kuyavian-Pomeranian Voivodeship
544,53.092205305,19.599761245,Rypin County,Kuyavian-Pomeranian Voivodeship
545,50.975564476,19.35512051,Częstochowa County,Silesian Voivodeship
546,50.864846818,21.747983364,Opatów County,Świętokrzyskie Voivodeship
547,50.547258348,17.279364692,Nysa County,Opole Voivodeship
548,51.692137152,17.724773679,Ostrów Wielkopolski County,Greater Poland Voivodeship
549,51.7725696,16.049269062,Głogów County,Lower Silesian Voivodeship
550,51.099658296,23.580820108,Chełm County,Lublin Voivodeship
551,53.84706966,15.642628733,Świdwin County,West Pomeranian Voivodeship
552,52.848510789,18.258061194,Inowrocław County,Kuyavian-Pomeranian Voivodeship
553,54.487523307,17.497242752,Słupsk County,Pomeranian Voivodeship
554,50.909762643,23.176539393,Krasnystaw County,Lublin Voivodeship
555,50.952928926,22.464577211,Kraśnik County,Lublin Voivodeship
556,52.836753372,18.166133094,Inowrocław County,Kuyavian-Pomeranian Voivodeship
557,49.567070848,21.989198007,Sanok County,Subcarpathian Voivodeship
558,54.154803572,21.36317639,Kętrzyn County,Warmian-Masurian Voivodeship
559,54.068718871,19.145400665,Malbork County,Pomeranian Voivodeship
560,53.979059639,19.833793348,Ostróda County,Warmian-Masurian Voivodeship
561,53.595770603,22.070501039,Pisz County,Warmian-Masurian Voivodeship
562,50.15079096,22.962765675,Lubaczów County,Subcarpathian Voivodeship
563,52.147223685,19.187762182,Łęczyca County,Łódzkie Voivodship
564,51.431515755,19.535968125,Piotrków County,Łódzkie Voivodship
565,52.981840767,22.89685165,Białystok County,Podlaskie Voivodeship
566,50.042125455,18.804219249,Pszczyna County,Silesian Voivodeship
567,54.324389005,21.098341913,Bartoszyce County,Warmian-Masurian Voivodeship
568,51.016627993,23.817892053,Chełm County,Lublin Voivodeship
569,54.083609613,19.426314576,Elbląg County,Warmian-Masurian Voivodeship
570,49.730631559,20.343514291,Limanowa County,Lesser Poland Voivodeship
571,51.661605297,19.818227058,Tomaszów Mazowiecki County,Łódzkie Voivodship
572,54.263359073,16.346076325,Koszalin County,West Pomeranian Voivodeship
573,51.374399176,17.613053141,Oleśnica County,Lower Silesian Voivodeship
574,50.778984026,18.628941918,Lubliniec County,Silesian Voivodeship
575,50.711269637,16.96331096,Strzelin County,Lower Silesian Voivodeship
576,53.596398658,18.677412882,Świecie County,Kuyavian-Pomeranian Voivodeship
577,53.368004853,17.783396911,Bydgoszcz County,Kuyavian-Pomeranian Voivodeship
578,50.320373018,22.752470776,Biłgoraj County,Lublin Voivodeship
579,53.002156168,20.664328405,Ciechanów County,Masovian Voivodeship
580,50.074017235,18.134489237,Racibórz County,Silesian Voivodeship
581,49.522852792,22.062304753,Sanok County,Subcarpathian Voivodeship
582,53.515701727,23.182936297,Sokółka County,Podlaskie Voivodeship
583,53.251220902,20.514139923,Nidzica County,Warmian-Masurian Voivodeship
584,51.279072699,20.05436537,Opoczno County,Łódzkie Voivodship
585,53.624696084,19.50678692,Iława County,Warmian-Masurian Voivodeship
586,52.701541232,18.796838843,Aleksandrów County,Kuyavian-Pomeranian Voivodeship
587,51.254434046,22.197685367,Lublin County,Lublin Voivodeship
588,51.253063552,17.535216612,Oleśnica County,Lower Silesian Voivodeship
589,49.688265792,19.158530092,Żywiec County,Silesian Voivodeship
590,52.626264891,21.200518705,Pułtusk County,Masovian Voivodeship
591,51.897465457,21.960042388,Łuków County,Lublin Voivodeship
592,50.121560141,17.973684042,Głubczyce County,Opole Voivodeship
593,50.632065773,20.400041773,Jędrzejów County,Świętokrzyskie Voivodeship
594,52.372310007,20.808306098,Nowy Dwór Mazowiecki County,Masovian Voivodeship
595,50.662321834,23.42300861,Zamość County,Lublin Voivodeship
596,50.373503036,18.242803017,Kędzierzyn-Koźle County,Opole Voivodeship
597,53.423390618,18.308576639,Świecie County,Kuyavian-Pomeranian Voivodeship
598,50.129312964,17.862359367,Głubczyce County,Opole Voivodeship
599,50.179146144,18.180735357,Racibórz County,Silesian Voivodeship
600,50.484800189,20.424258646,Pińczów County,Świętokrzyskie Voivodeship
601,50.362405966,18.637364796,Gliwice,Silesian Voivodeship
602,52.857411804,22.52706764,Wysokie Mazowieckie County,Podlaskie Voivodeship
603,51.165224608,15.940453811,Złotoryja County,Lower Silesian Voivodeship
604,51.068825888,17.591179538,Namysłów County,Opole Voivodeship
605,51.012780771,20.197751796,Końskie County,Świętokrzyskie Voivodeship
606,51.133496667,17.429368071,Oleśnica County,Lower Silesian Voivodeship
607,54.261682585,20.988131669,Bartoszyce County,Warmian-Masurian Voivodeship
608,52.138117051,19.303820021,Łęczyca County,Łódzkie Voivodship
609,51.729375906,23.181471355,Biała Podlaska County,Lublin Voivodeship
610,53.087849044,22.412321016,Zambrów County,Podlaskie Voivodeship
611,51.199485908,22.706760282,Świdnik County,Lublin Voivodeship
612,53.211415177,16.46061853,Wałcz County,West Pomeranian Voivodeship
613,52.617953176,21.288208915,Wyszków County,Masovian Voivodeship
614,53.887882848,15.922828951,Świdwin County,West Pomeranian Voivodeship
615,52.30983791,18.955270949,Koło County,Greater Poland Voivodeship
616,50.206956421,19.881217815,Kraków County,Lesser Poland Voivodeship
617,53.066039771,19.473384492,Rypin County,Kuyavian-Pomeranian Voivodeship
618,51.607759091,18.670055558,Sieradz County,Łódzkie Voivodship
619,53.778211475,15.572545637,Łobez County,West Pomeranian Voivodeship
620,53.987960425,21.967460256,Giżycko County,Warmian-Masurian Voivodeship
621,52.13305465,15.687631201,Zielona Góra County,Lubusz Voivodeship
622,51.164850061,18.297976799,Wieruszów County,Łódzkie Voivodship
623,50.630275283,16.809192158,Ząbkowice Śląskie County,Lower Silesian Voivodeship
624,52.964195895,22.891543987,Białystok County,Podlaskie Voivodeship
625,53.990630107,18.728427121,Tczew County,Pomeranian Voivodeship
626,50.705082819,19.986933554,Włoszczowa County,Świętokrzyskie Voivodeship
627,50.688699327,23.661647398,Hrubieszów County,Lublin Voivodeship
628,53.156499244,22.797428907,Białystok County,Podlaskie Voivodeship
629,50.647252552,17.124331593,Strzelin County,Lower Silesian Voivodeship
630,53.253536313,22.216872511,Łomża County,Podlaskie Voivodeship
631,51.399804582,21.303241918,Radom County,Masovian Voivodeship
632,52.689943639,22.38832767,Ostrów Mazowiecka County,Masovian Voivodeship
633,50.946610775,18.803706342,Kłobuck County,Silesian Voivodeship
634,53.110072009,14.767229254,Pyrzyce County,West Pomeranian Voivodeship
635,53.101338295,14.526836573,Gryfino County,West Pomeranian Voivodeship
636,53.547341547,14.634609039,Goleniów County,West Pomeranian Voivodeship
637,53.816279898,14.664100201,Kamień County,West Pomeranian Voivodeship
638,51.943320991,15.109199803,Krosno Odrzańskie County,Lubusz Voivodeship
639,53.812645792,15.607557757,Świdwin County,West Pomeranian Voivodeship
640,52.783052193,15.266474933,Gorzów County,Lubusz Voivodeship
641,51.284161225,15.725680748,Bolesławiec County,Lower Silesian Voivodeship
642,51.713565013,16.797117307,Rawicz County,Greater Poland Voivodeship
643,50.833550891,16.41110125,Świdnica County,Lower Silesian Voivodeship
644,52.068260786,16.587244048,Kościan County,Greater Poland Voivodeship
645,51.658366828,16.498411299,Góra County,Lower Silesian Voivodeship
646,53.481169225,16.804164308,Złotów County,Greater Poland Voivodeship
647,53.355350737,16.120343165,Wałcz County,West Pomeranian Voivodeship
648,51.135270514,15.449128788,Bolesławiec County,Lower Silesian Voivodeship
649,52.804907585,15.953542239,Czarnków-Trzcianka County,Greater Poland Voivodeship
650,53.568595653,16.181329685,Drawsko County,West Pomeranian Voivodeship
651,53.029913278,15.775002402,Choszczno County,West Pomeranian Voivodeship
652,51.095631714,16.562228068,Środa Śląska County,Lower Silesian Voivodeship
653,51.115839017,15.84807855,Złotoryja County,Lower Silesian Voivodeship
654,53.798370297,15.910254999,Świdwin County,West Pomeranian Voivodeship
655,54.222025118,16.09346448,Koszalin County,West Pomeranian Voivodeship
656,54.275227553,17.119141293,Bytów County,Pomeranian Voivodeship
657,51.179902317,16.344408797,Legnica County,Lower Silesian Voivodeship
658,50.67286796,17.839810575,Opole County,Opole Voivodeship
659,53.078343963,18.332130301,Toruń County,Kuyavian-Pomeranian Voivodeship
660,53.36369315,18.387766318,Świecie County,Kuyavian-Pomeranian Voivodeship
661,51.165748012,17.204511835,Wrocław County,Lower Silesian Voivodeship
662,51.015970813,18.357298898,Olesno County,Opole Voivodeship
663,50.35324663,17.758255738,Prudnik County,Opole Voivodeship
664,51.372785143,18.422625989,Wieruszów County,Łódzkie Voivodship
665,53.205250976,18.326602017,Bydgoszcz County,Kuyavian-Pomeranian Voivodeship
666,51.276540501,17.164292867,Trzebnica County,Lower Silesian Voivodeship
667,50.875983893,17.502386159,Brzeg County,Opole Voivodeship
668,53.256287478,17.551982063,Nakło County,Kuyavian-Pomeranian Voivodeship
669,51.152518709,17.691301738,Namysłów County,Opole Voivodeship
670,52.64204419,18.367865661,Inowrocław County,Kuyavian-Pomeranian Voivodeship
671,50.536460749,17.164215395,Nysa County,Opole Voivodeship
672,52.947063815,17.587807525,Nakło County,Kuyavian-Pomeranian Voivodeship
673,52.636500831,17.920444478,Mogilno County,Kuyavian-Pomeranian Voivodeship
674,54.505383188,17.500500022,Słupsk County,Pomeranian Voivodeship
675,51.04909312,17.616628844,Namysłów County,Opole Voivodeship
676,53.254619717,18.396589855,Chełmno County,Kuyavian-Pomeranian Voivodeship
677,51.68551992,16.967310203,Rawicz County,Greater Poland Voivodeship
678,50.926242785,17.281620336,Oława County,Lower Silesian Voivodeship
679,50.791469976,17.688518839,Brzeg County,Opole Voivodeship
680,50.300149943,18.003834199,Kędzierzyn-Koźle County,Opole Voivodeship
681,51.085707189,18.139930306,Kluczbork County,Opole Voivodeship
682,50.966304765,17.774892462,Namysłów County,Opole Voivodeship
683,53.907410219,17.821984497,Kościerzyna County,Pomeranian Voivodeship
684,53.992789232,18.698131977,Tczew County,Pomeranian Voivodeship
685,52.874302089,17.306136125,Wągrowiec County,Greater Poland Voivodeship
686,51.624971287,17.074132824,Rawicz County,Greater Poland Voivodeship
687,50.412222328,18.930223996,Piekary Śląskie,Silesian Voivodeship
688,53.017310336,19.402482112,Rypin County,Kuyavian-Pomeranian Voivodeship
689,51.766522059,20.075457258,Skierniewice County,Łódzkie Voivodship
690,51.044142002,17.41496426,Oława County,Lower Silesian Voivodeship
691,53.791602445,20.557180416,Olsztyn,Warmian-Masurian Voivodeship
692,51.548213487,17.149135795,Milicz County,Lower Silesian Voivodeship
693,51.105344151,17.855867892,Namysłów County,Opole Voivodeship
694,50.875263395,18.303255868,Kluczbork County,Opole Voivodeship
695,50.183137914,18.125024504,Kędzierzyn-Koźle County,Opole Voivodeship
696,50.493217532,16.987601669,Ząbkowice Śląskie County,Lower Silesian Voivodeship
697,53.042242418,21.218137919,Maków County,Masovian Voivodeship
698,50.843629297,18.240377428,Kluczbork County,Opole Voivodeship
699,54.019517431,22.37978522,Olecko County,Warmian-Masurian Voivodeship
700,53.246331859,19.483029211,Brodnica County,Kuyavian-Pomeranian Voivodeship
701,52.169126337,19.369350925,Kutno County,Łódzkie Voivodship
702,50.492341727,18.348864405,Strzelce County,Opole Voivodeship
703,50.494056107,19.913317472,Zawiercie County,Silesian Voivodeship
704,51.778829805,18.556950956,Sieradz County,Łódzkie Voivodship
705,50.311287762,19.93150088,powiat miechowski,Lesser Poland Voivodeship
706,50.542552034,19.980646002,Jędrzejów County,Świętokrzyskie Voivodeship
707,53.778449502,20.707453986,Olsztyn County,Warmian-Masurian Voivodeship
708,53.327423617,20.472186505,Nidzica County,Warmian-Masurian Voivodeship
709,50.476925004,19.027811369,Tarnowskie Góry County,Silesian Voivodeship
710,50.293163456,18.596387124,Gliwice,Silesian Voivodeship
711,52.361074008,18.995296489,Włocławek County,Kuyavian-Pomeranian Voivodeship
712,51.252427967,21.324705558,Radom County,Masovian Voivodeship
713,53.198175743,19.170232926,Golub-Dobrzyń County,Kuyavian-Pomeranian Voivodeship
714,51.287883394,21.333537251,Radom County,Masovian Voivodeship
715,50.83076869,21.364885396,Opatów County,Świętokrzyskie Voivodeship
716,50.573753474,19.616484503,Zawiercie County,Silesian Voivodeship
717,51.8790946,21.601254256,Garwolin County,Masovian Voivodeship
718,50.312866311,23.293745746,Lubaczów County,Subcarpathian Voivodeship
719,53.002585026,23.206675026,Białystok County,Podlaskie Voivodeship
720,52.855085813,22.375379609,Wysokie Mazowieckie County,Podlaskie Voivodeship
721,52.943437835,22.400821614,Wysokie Mazowieckie County,Podlaskie Voivodeship
722,50.977218133,21.89239651,Opole Lubelskie County,Lublin Voivodeship
723,50.050576198,22.395411734,Przeworsk County,Subcarpathian Voivodeship
724,52.9933805,22.44555738,Wysokie Mazowieckie County,Podlaskie Voivodeship
725,51.196368127,22.73500934,Świdnik County,Lublin Voivodeship
726,53.784940134,22.711512614,Ełk County,Warmian-Masurian Voivodeship
727,51.63795881,22.008178665,Ryki County,Lublin Voivodeship
728,51.206371497,23.291687921,Chełm County,Lublin Voivodeship
729,53.10860754,23.879542184,Białystok County,Podlaskie Voivodeship
730,52.931864569,22.336983926,Zambrów County,Podlaskie Voivodeship
731,52.965858403,23.043664536,Białystok County,Podlaskie Voivodeship
732,53.653443064,23.257117321,Sokółka County,Podlaskie Voivodeship
733,51.335564985,22.628118684,Lublin County,Lublin Voivodeship
734,52.083397533,21.181211319,Piaseczno County,Masovian Voivodeship
735,50.548089769,19.269331688,Myszków County,Silesian Voivodeship
736,52.41638339,18.739757879,Włocławek County,Kuyavian-Pomeranian Voivodeship
737,50.944518693,19.291372472,Częstochowa County,Silesian Voivodeship
738,51.67458435,19.441377452,County Lodzki,Łódzkie Voivodship
739,54.294133669,19.970884524,Braniewo County,Warmian-Masurian Voivodeship
740,53.781045177,19.818024036,Ostróda County,Warmian-Masurian Voivodeship
741,52.865390682,20.570427464,Ciechanów County,Masovian Voivodeship
742,50.664605386,20.035425341,Jędrzejów County,Świętokrzyskie Voivodeship
743,50.735958313,18.478184581,Olesno County,Opole Voivodeship
744,51.041304318,18.505576763,Olesno County,Opole Voivodeship
745,51.155941059,19.363058886,Radomsko County,Łódzkie Voivodship
746,51.440829911,19.421737655,Bełchatów County,Łódzkie Voivodship
747,50.36398173,22.850209564,Biłgoraj County,Lublin Voivodeship
748,50.546672454,23.475809108,Tomaszów Lubelski County,Lublin Voivodeship
749,50.04758078,21.742299805,Ropczyce-Sędziszów County,Subcarpathian Voivodeship
750,51.628825718,22.269904171,Lubartów County,Lublin Voivodeship
751,51.540307771,19.966681105,Tomaszów Mazowiecki County,Łódzkie Voivodship
752,52.169545428,19.133383702,Łęczyca County,Łódzkie Voivodship
753,52.737107332,19.282050387,Lipno County,Kuyavian-Pomeranian Voivodeship
754,52.950735902,19.327899842,Lipno County,Kuyavian-Pomeranian Voivodeship
755,53.898889056,22.31292873,Ełk County,Warmian-Masurian Voivodeship
756,54.134272452,21.388571202,Kętrzyn County,Warmian-Masurian Voivodeship
757,49.955099828,18.760034626,Pszczyna County,Silesian Voivodeship
758,51.127080095,21.119851351,Starachowice County,Świętokrzyskie Voivodeship
759,50.000230651,18.402858035,Wodzisław County,Silesian Voivodeship
760,51.193396037,18.649146864,Wieluń County,Łódzkie Voivodship
761,54.318169705,21.938679857,Węgorzewo County,Warmian-Masurian Voivodeship
762,52.778632902,20.729320927,Ciechanów County,Masovian Voivodeship
763,50.323514636,18.432109794,Gliwice County,Silesian Voivodeship
764,53.672456851,19.120395107,Kwidzyn County,Pomeranian Voivodeship
765,51.365568262,22.519628184,Lublin County,Lublin Voivodeship
766,50.242249906,22.959514661,Lubaczów County,Subcarpathian Voivodeship
767,53.498073696,23.177414733,Sokółka County,Podlaskie Voivodeship
768,53.586304808,22.344096233,Grajewo County,Podlaskie Voivodeship
769,50.090860614,21.497867375,Dębica County,Subcarpathian Voivodeship
770,52.537470102,22.79480897,Siemiatycze County,Podlaskie Voivodeship
771,50.802585921,21.645743518,Opatów County,Świętokrzyskie Voivodeship
772,51.24539989,21.758863042,Lipsko County,Masovian Voivodeship
773,53.539826415,23.129000021,Sokółka County,Podlaskie Voivodeship
774,50.880335456,24.037944458,Hrubieszów County,Lublin Voivodeship
775,50.442925437,23.732945414,Tomaszów Lubelski County,Lublin Voivodeship
776,50.692892941,23.778443082,Hrubieszów County,Lublin Voivodeship
777,50.235135977,22.700748181,Przeworsk County,Subcarpathian Voivodeship
778,50.738204441,23.705250814,Hrubieszów County,Lublin Voivodeship
779,51.492041547,23.023815357,Parczew County,Lublin Voivodeship
780,50.86821784,23.686109252,Hrubieszów County,Lublin Voivodeship
781,53.286661559,23.601017096,Sokółka County,Podlaskie Voivodeship
782,50.589631804,23.574741718,Tomaszów Lubelski County,Lublin Voivodeship
783,53.036089951,22.731039092,Wysokie Mazowieckie County,Podlaskie Voivodeship
784,52.080630909,23.137547688,Biała Podlaska County,Lublin Voivodeship
785,51.485657598,21.35391691,Radom County,Masovian Voivodeship
786,50.261677427,18.534116288,Gliwice County,Silesian Voivodeship
787,52.899923264,19.046971445,Toruń County,Kuyavian-Pomeranian Voivodeship
788,53.293985956,19.099981009,Wąbrzeźno County,Kuyavian-Pomeranian Voivodeship
789,50.477178961,20.308548733,Jędrzejów County,Świętokrzyskie Voivodeship
790,50.823885565,19.439070764,Częstochowa County,Silesian Voivodeship
791,50.203965443,18.580164833,Gliwice County,Silesian Voivodeship
792,54.149478777,16.789955237,Słupsk County,Pomeranian Voivodeship
793,50.802074944,18.061556955,Opole County,Opole Voivodeship
794,52.244132848,19.562658706,Kutno County,Łódzkie Voivodship
795,51.240468788,15.1168944,Zgorzelec County,Lower Silesian Voivodeship
796,51.285141871,23.081073043,Łęczna County,Lublin Voivodeship
797,53.870227091,21.100626797,Mrągowo County,Warmian-Masurian Voivodeship
798,52.423119401,19.809504957,Płock County,Masovian Voivodeship
799,53.159235208,20.73371823,Przasnysz County,Masovian Voivodeship
800,50.4291708,17.14786714,Nysa County,Opole Voivodeship
801,51.425336127,19.38949035,Bełchatów County,Łódzkie Voivodship
802,51.174484143,18.41498146,Wieluń County,Łódzkie Voivodship
803,52.84500721,22.64428669,Wysokie Mazowieckie County,Podlaskie Voivodeship
804,52.966678274,19.121022977,Lipno County,Kuyavian-Pomeranian Voivodeship
805,50.962562817,22.033164241,Kraśnik County,Lublin Voivodeship
806,50.881162647,21.40613912,Ostrowiec County,Świętokrzyskie Voivodeship
807,52.751665815,23.492250881,Hajnówka County,Podlaskie Voivodeship
808,50.74489573,23.649409887,Hrubieszów County,Lublin Voivodeship
809,50.958331143,18.404227606,Olesno County,Opole Voivodeship
810,51.44225327,19.625386394,Piotrków County,Łódzkie Voivodship
811,51.752958895,21.950781819,Ryki County,Lublin Voivodeship
812,54.528333463,16.790329066,Słupsk County,Pomeranian Voivodeship
813,52.967227832,20.233912334,Mława County,Masovian Voivodeship
814,51.10081269,17.653921052,Namysłów County,Opole Voivodeship
815,52.82021514,22.184392957,Ostrów Mazowiecka County,Masovian Voivodeship
816,50.672146648,19.522526381,Myszków County,Silesian Voivodeship
817,50.870565672,23.512878157,Zamość County,Lublin Voivodeship
818,53.660210537,21.014470894,Szczytno County,Warmian-Masurian Voivodeship
819,51.525788729,21.861185117,Puławy County,Lublin Voivodeship
820,52.757118265,23.282446453,Bielsk County,Podlaskie Voivodeship
821,50.902501786,23.551301658,Chełm County,Lublin Voivodeship
822,50.067500984,21.548850572,Ropczyce-Sędziszów County,Subcarpathian Voivodeship
823,50.486280259,23.975957036,Hrubieszów County,Lublin Voivodeship
824,54.115224602,22.688545318,Suwałki County,Podlaskie Voivodeship
825,51.099543907,18.199897352,Kluczbork County,Opole Voivodeship
826,50.636373882,19.943609098,Włoszczowa County,Świętokrzyskie Voivodeship
827,54.187567004,17.381407761,Bytów County,Pomeranian Voivodeship
828,52.705867689,18.738033605,Aleksandrów County,Kuyavian-Pomeranian Voivodeship
829,50.623540239,16.921833319,Ząbkowice Śląskie County,Lower Silesian Voivodeship
830,52.671508025,22.563520437,Wysokie Mazowieckie County,Podlaskie Voivodeship
831,50.91129021,19.026428923,Kłobuck County,Silesian Voivodeship
832,50.576204778,20.416134032,Jędrzejów County,Świętokrzyskie Voivodeship
833,52.901975712,22.449330748,Wysokie Mazowieckie County,Podlaskie Voivodeship
834,50.289990848,22.030893135,Kolbuszowa County,Subcarpathian Voivodeship
835,51.19279944,18.158934578,Kępno County,Greater Poland Voivodeship
836,52.986707747,23.019668608,Białystok County,Podlaskie Voivodeship
837,50.545746913,20.352239723,Pińczów County,Świętokrzyskie Voivodeship
838,51.11542714,17.972614425,Kluczbork County,Opole Voivodeship
839,50.500469898,18.236722836,Strzelce County,Opole Voivodeship
840,53.471481751,19.837580367,Iława County,Warmian-Masurian Voivodeship
841,50.265556668,20.829874231,Dąbrowa County,Lesser Poland Voivodeship
842,54.112860821,15.739878492,Colberg County,West Pomeranian Voivodeship
843,54.069424527,15.090404072,Gryfice County,West Pomeranian Voivodeship
844,52.948816958,22.523449703,Wysokie Mazowieckie County,Podlaskie Voivodeship
845,51.734914155,22.299001847,Łuków County,Lublin Voivodeship
846,53.053527761,18.92874757,Golub-Dobrzyń County,Kuyavian-Pomeranian Voivodeship
847,51.302511153,18.64089799,Wieluń County,Łódzkie Voivodship
848,53.156678227,15.371992615,Choszczno County,West Pomeranian Voivodeship
849,53.356720465,17.086303873,Złotów County,Greater Poland Voivodeship
850,51.042925083,23.127783025,Krasnystaw County,Lublin Voivodeship
851,51.325183768,22.216721324,Puławy County,Lublin Voivodeship
852,53.292514885,15.148322394,Stargard County,West Pomeranian Voivodeship
853,51.189916094,16.489468524,Środa Śląska County,Lower Silesian Voivodeship
854,52.452468083,17.413571578,Gniezno County,Greater Poland Voivodeship
855,52.096720177,20.238856323,Skierniewice County,Łódzkie Voivodship
856,51.847974446,14.807370049,Krosno Odrzańskie County,Lubusz Voivodeship
857,50.578268324,16.773255061,Ząbkowice Śląskie County,Lower Silesian Voivodeship
858,51.348506012,22.339742744,Lublin County,Lublin Voivodeship
859,53.035014679,20.702671219,Przasnysz County,Masovian Voivodeship
860,52.553127214,22.649332269,Siemiatycze County,Podlaskie Voivodeship
861,53.423999552,20.191597844,Ostróda County,Warmian-Masurian Voivodeship
862,54.276488597,16.440590953,Sławno County,West Pomeranian Voivodeship
863,50.195590067,22.063617928,Rzeszów County,Subcarpathian Voivodeship
864,53.619137561,22.200089384,Pisz County,Warmian-Masurian Voivodeship
865,52.260086866,22.833143944,Łosice County,Masovian Voivodeship
866,49.969330638,20.310831413,Wieliczka County,Lesser Poland Voivodeship
867,50.281784684,17.746512258,Głubczyce County,Opole Voivodeship
868,50.579643991,23.658238246,Tomaszów Lubelski County,Lublin Voivodeship
869,50.905146906,16.420995698,Świdnica County,Lower Silesian Voivodeship
870,51.611312168,14.869113702,Żary County,Lubusz Voivodeship
871,50.765395776,21.291320019,Opatów County,Świętokrzyskie Voivodeship
872,50.591143751,16.8602689,Ząbkowice Śląskie County,Lower Silesian Voivodeship
873,54.030839537,19.167887764,Malbork County,Pomeranian Voivodeship
874,51.375797654,20.1919442,Opoczno County,Łódzkie Voivodship
875,50.559749109,17.366466012,Nysa County,Opole Voivodeship
876,52.294223086,18.922533886,Koło County,Greater Poland Voivodeship
877,50.07031996,21.521202977,Ropczyce-Sędziszów County,Subcarpathian Voivodeship
878,53.740310087,20.728417296,Olsztyn County,Warmian-Masurian Voivodeship
879,53.589302713,15.365960681,Łobez County,West Pomeranian Voivodeship
880,53.476170614,19.321414669,Nowe Miasto County,Warmian-Masurian Voivodeship
881,50.613701385,19.995888884,Jędrzejów County,Świętokrzyskie Voivodeship
882,52.241579058,15.290252109,Świebodzin County,Lubusz Voivodeship
883,50.371751121,19.433146326,Zawiercie County,Silesian Voivodeship
884,52.804185347,17.56288056,Żnin County,Kuyavian-Pomeranian Voivodeship
885,52.637106451,20.066643869,Płock County,Masovian Voivodeship
886,51.353308065,17.089726562,Trzebnica County,Lower Silesian Voivodeship
887,53.957494161,18.93660057,Sztum County,Pomeranian Voivodeship
888,51.313143849,22.330113188,Lublin County,Lublin Voivodeship
889,52.405259561,21.233375149,Wołomin County,Masovian Voivodeship
890,51.020059286,18.300605105,Olesno County,Opole Voivodeship
891,52.863343348,17.483535975,Wągrowiec County,Greater Poland Voivodeship
892,51.781405567,16.225051564,Wschowa County,Lubusz Voivodeship
893,52.694997449,18.885026545,Włocławek County,Kuyavian-Pomeranian Voivodeship
894,51.297163169,16.821599786,Trzebnica County,Lower Silesian Voivodeship
895,53.151298763,17.202756839,Piła County,Greater Poland Voivodeship
896,52.6889844,20.916903786,Pułtusk County,Masovian Voivodeship
897,53.027261376,15.445637588,Choszczno County,West Pomeranian Voivodeship
898,50.37025057,22.794706422,Biłgoraj County,Lublin Voivodeship
899,50.812987974,19.35090491,Częstochowa County,Silesian Voivodeship
900,50.762147872,16.714519205,Dzierżoniów County,Lower Silesian Voivodeship
901,52.765780274,18.660433532,Aleksandrów County,Kuyavian-Pomeranian Voivodeship
902,51.613291634,18.08921897,Ostrów Wielkopolski County,Greater Poland Voivodeship
903,49.922203696,19.17531775,Bielsko County,Silesian Voivodeship
904,54.106594478,19.122876136,Malbork County,Pomeranian Voivodeship
905,50.83686187,17.267595269,Oława County,Lower Silesian Voivodeship
906,53.910366495,19.786870308,Ostróda County,Warmian-Masurian Voivodeship
907,51.045761481,15.038123303,Zgorzelec County,Lower Silesian Voivodeship
908,51.494240141,19.432840754,Bełchatów County,Łódzkie Voivodship
909,53.719133302,22.290816321,Ełk County,Warmian-Masurian Voivodeship
910,51.065856827,18.165156723,Kluczbork County,Opole Voivodeship
911,53.741714917,21.312446675,Mrągowo County,Warmian-Masurian Voivodeship
912,52.33950986,21.722663456,Mińsk County,Masovian Voivodeship
913,51.928962224,15.807646695,Zielona Góra County,Lubusz Voivodeship
914,49.774593256,18.754999538,Cieszyn County,Silesian Voivodeship
915,51.331769986,18.733237508,Wieluń County,Łódzkie Voivodship
916,52.132500045,17.037082235,Śrem County,Greater Poland Voivodeship
917,50.143861573,19.98112561,Kraków County,Lesser Poland Voivodeship
918,52.167292597,19.162418992,Łęczyca County,Łódzkie Voivodship
919,52.734083257,21.018256633,Pułtusk County,Masovian Voivodeship
920,52.516921633,17.246626639,Poznań County,Greater Poland Voivodeship
921,51.50712531,18.563687128,Sieradz County,Łódzkie Voivodship
922,50.745327504,16.99688572,Strzelin County,Lower Silesian Voivodeship
923,51.178602873,18.358098348,Wieluń County,Łódzkie Voivodship
924,50.469440047,20.19288081,powiat miechowski,Lesser Poland Voivodeship
925,49.871491409,21.331926727,Dębica County,Subcarpathian Voivodeship
926,51.200700657,19.256677719,Bełchatów County,Łódzkie Voivodship
927,51.20477757,21.25483133,Radom County,Masovian Voivodeship
928,49.664364602,22.266849811,Brzozów County,Subcarpathian Voivodeship
929,50.340078539,20.42051893,Kazimierza County,Świętokrzyskie Voivodeship
930,52.931834931,17.824631724,Żnin County,Kuyavian-Pomeranian Voivodeship
931,53.846149718,16.038969187,Świdwin County,West Pomeranian Voivodeship
932,50.191575601,19.849698955,Kraków County,Lesser Poland Voivodeship
933,52.634778218,17.38497849,Gniezno County,Greater Poland Voivodeship
934,51.817506297,16.871111464,Gostyń County,Greater Poland Voivodeship
935,51.431750041,16.986273764,Trzebnica County,Lower Silesian Voivodeship
936,52.854673724,14.382176791,Gryfino County,West Pomeranian Voivodeship
937,52.380969065,15.395293776,Sulęcin County,Lubusz Voivodeship
938,53.987415513,15.325054364,Gryfice County,West Pomeranian Voivodeship
939,53.248904107,15.323402079,Choszczno County,West Pomeranian Voivodeship
940,51.230420642,15.71897852,Bolesławiec County,Lower Silesian Voivodeship
941,51.087485052,16.704470279,Środa Śląska County,Lower Silesian Voivodeship
942,51.230605039,16.725371672,Środa Śląska County,Lower Silesian Voivodeship
943,52.878109393,16.619912806,Czarnków-Trzcianka County,Greater Poland Voivodeship
944,53.357725118,16.422346315,Wałcz County,West Pomeranian Voivodeship
945,53.98384303,16.518029186,Koszalin County,West Pomeranian Voivodeship
946,53.960959217,15.902558859,Białogard County,West Pomeranian Voivodeship
947,51.150219777,15.881134845,Złotoryja County,Lower Silesian Voivodeship
948,51.73898512,15.637914825,Nowa Sól County,Lubusz Voivodeship
949,54.435551305,16.836990608,Sławno County,West Pomeranian Voivodeship
950,54.456981611,16.437791162,Sławno County,West Pomeranian Voivodeship
951,51.142249519,15.67934603,Lwówek Śląski County,Lower Silesian Voivodeship
952,51.199357664,16.31835742,Legnica County,Lower Silesian Voivodeship
953,50.43784406,17.007672756,Nysa County,Opole Voivodeship
954,50.387070813,17.792133506,Prudnik County,Opole Voivodeship
955,50.458524752,17.803985293,Krapkowice County,Opole Voivodeship
956,52.817007745,17.057861934,Wągrowiec County,Greater Poland Voivodeship
957,52.689983826,18.198247202,Mogilno County,Kuyavian-Pomeranian Voivodeship
958,50.123582111,18.199317192,Racibórz County,Silesian Voivodeship
959,50.391352956,18.24593109,Strzelce County,Opole Voivodeship
960,51.301428542,18.409460034,Wieluń County,Łódzkie Voivodship
961,50.287996693,17.380482458,Nysa County,Opole Voivodeship
962,50.377376902,17.394479143,Nysa County,Opole Voivodeship
963,50.57746543,17.085321866,Ząbkowice Śląskie County,Lower Silesian Voivodeship
964,54.226621686,18.716253778,Gdańsk County,Pomeranian Voivodeship
965,53.577740633,17.609125821,Sępólno County,Kuyavian-Pomeranian Voivodeship
966,52.473892561,17.061953644,Poznań County,Greater Poland Voivodeship
967,54.091717905,17.764246648,Kościerzyna County,Pomeranian Voivodeship
968,50.786219418,16.917509395,Strzelin County,Lower Silesian Voivodeship
969,50.488642044,18.149489488,Strzelce County,Opole Voivodeship
970,50.327963237,18.121684555,Kędzierzyn-Koźle County,Opole Voivodeship
971,50.362664064,17.61838197,Prudnik County,Opole Voivodeship
972,50.438204634,17.290784538,Nysa County,Opole Voivodeship
973,50.825307729,17.722688837,Opole County,Opole Voivodeship
974,53.197716336,17.330931103,Piła County,Greater Poland Voivodeship
975,51.935636089,17.591124767,Jarocin County,Greater Poland Voivodeship
976,50.468121698,19.793963009,Zawiercie County,Silesian Voivodeship
977,50.917038762,18.224803553,Kluczbork County,Opole Voivodeship
978,51.444030393,20.032749389,Tomaszów Mazowiecki County,Łódzkie Voivodship
979,51.901775033,17.556150682,Jarocin County,Greater Poland Voivodeship
980,50.471954843,20.563931542,Pińczów County,Świętokrzyskie Voivodeship
981,50.558045651,18.189999912,Strzelce County,Opole Voivodeship
982,51.812379988,20.173751424,Rawa County,Łódzkie Voivodship
983,53.304481489,20.527280565,Nidzica County,Warmian-Masurian Voivodeship
984,50.530077208,18.327174689,Strzelce County,Opole Voivodeship
985,50.008029143,21.05352996,Tarnów County,Lesser Poland Voivodeship
986,52.118354349,19.093390361,Łęczyca County,Łódzkie Voivodship
987,50.844604313,21.22434061,Ostrowiec County,Świętokrzyskie Voivodeship
988,51.499098508,19.812059336,Piotrków County,Łódzkie Voivodship
989,51.651641876,21.513096175,Kozienice County,Masovian Voivodeship
990,53.115266096,21.964839735,Łomża County,Podlaskie Voivodeship
991,52.810446013,20.977578835,Maków County,Masovian Voivodeship
992,50.700866339,23.405359508,Zamość County,Lublin Voivodeship
993,51.237926525,22.688372541,Świdnik County,Lublin Voivodeship
994,51.003852652,23.465109051,Chełm County,Lublin Voivodeship
995,50.790036278,22.622423642,Janów Lubelski County,Lublin Voivodeship
996,54.173187066,22.831130187,Suwałki County,Podlaskie Voivodeship
997,51.921033491,22.084518433,Łuków County,Lublin Voivodeship
998,53.358991051,22.430548518,Grajewo County,Podlaskie Voivodeship
999,54.188969313,22.680079542,Suwałki County,Podlaskie Voivodeship
1000,51.214200328,23.381532129,Chełm County,Lublin Voivodeship
1001,51.638966407,22.68407983,Radzyń Podlaski County,Lublin Voivodeship
1002,52.697185922,18.855633343,Aleksandrów County,Kuyavian-Pomeranian Voivodeship
1003,52.640313556,19.589631272,Płock County,Masovian Voivodeship
1004,51.278278277,19.417084089,Bełchatów County,Łódzkie Voivodship
1005,53.311448627,19.800635687,Działdowo County,Warmian-Masurian Voivodeship
1006,50.303965307,20.015074444,powiat miechowski,Lesser Poland Voivodeship
1007,50.588540983,20.076139706,Jędrzejów County,Świętokrzyskie Voivodeship
1008,51.672873821,20.317641028,Rawa County,Łódzkie Voivodship
1009,52.827276076,20.591155899,Ciechanów County,Masovian Voivodeship
1010,54.335330033,20.976653766,Bartoszyce County,Warmian-Masurian Voivodeship
1011,50.824659557,20.070124953,Włoszczowa County,Świętokrzyskie Voivodeship
1012,50.524264288,23.814620628,Tomaszów Lubelski County,Lublin Voivodeship
1013,50.793391886,21.5570804,Opatów County,Świętokrzyskie Voivodeship
1014,53.978048931,22.429419487,Olecko County,Warmian-Masurian Voivodeship
1015,52.704239178,23.266188178,Bielsk County,Podlaskie Voivodeship
1016,50.899181694,23.579323015,Chełm County,Lublin Voivodeship
1017,49.882378961,21.757910725,Strzyżów County,Subcarpathian Voivodeship
1018,49.666875809,21.732988078,Krosno County,Subcarpathian Voivodeship
1019,53.899001229,22.839315282,Augustów County,Podlaskie Voivodeship
1020,50.53849439,23.847667854,Tomaszów Lubelski County,Lublin Voivodeship
1021,54.220007274,21.443343953,Kętrzyn County,Warmian-Masurian Voivodeship
1022,50.626538824,23.874061332,Hrubieszów County,Lublin Voivodeship
1023,51.757610856,19.078726449,Łask County,Łódzkie Voivodship
1024,50.022077483,22.81373915,Jarosław County,Subcarpathian Voivodeship
1025,50.287043046,22.886204173,Lubaczów County,Subcarpathian Voivodeship
1026,51.836508954,23.361124869,Biała Podlaska County,Lublin Voivodeship
1027,52.437019795,21.838366448,Węgrów County,Masovian Voivodeship
1028,50.248667673,20.428644107,Kazimierza County,Świętokrzyskie Voivodeship
1029,51.085401867,21.543879846,Lipsko County,Masovian Voivodeship
1030,51.687678902,21.69844376,Garwolin County,Masovian Voivodeship
1031,52.600956953,19.849418978,Płock County,Masovian Voivodeship
1032,52.216864689,19.675007199,Kutno County,Łódzkie Voivodship
1033,50.339289517,18.463242235,Gliwice County,Silesian Voivodeship
1034,54.058466394,21.027118274,Bartoszyce County,Warmian-Masurian Voivodeship
1035,52.530248945,18.911060819,Włocławek County,Kuyavian-Pomeranian Voivodeship
1036,53.029066484,19.01390183,Golub-Dobrzyń County,Kuyavian-Pomeranian Voivodeship
1037,52.461167117,18.867364778,Włocławek County,Kuyavian-Pomeranian Voivodeship
1038,50.468676579,23.970653468,Hrubieszów County,Lublin Voivodeship
1039,53.930374938,22.539061764,Olecko County,Warmian-Masurian Voivodeship
1040,53.427558046,23.155383829,Sokółka County,Podlaskie Voivodeship
1041,50.808276995,21.589596818,Opatów County,Świętokrzyskie Voivodeship
1042,52.681748372,22.115393607,Sokołów County,Masovian Voivodeship
1043,52.608074776,22.815618138,Siemiatycze County,Podlaskie Voivodeship
1044,53.260905725,23.012050809,Białystok County,Podlaskie Voivodeship
1045,53.416403793,23.090590745,Sokółka County,Podlaskie Voivodeship
1046,50.980328457,23.196867066,Krasnystaw County,Lublin Voivodeship
1047,53.273686842,22.893806712,Mońki County,Podlaskie Voivodeship
1048,52.508444,22.726300424,Siemiatycze County,Podlaskie Voivodeship
1049,51.214560831,23.060725812,Łęczna County,Lublin Voivodeship
1050,51.227746095,22.277829115,Lublin County,Lublin Voivodeship
1051,51.065264824,22.930770894,Krasnystaw County,Lublin Voivodeship
1052,52.438784943,22.526406007,Sokołów County,Masovian Voivodeship
1053,49.943887544,22.537441323,Jarosław County,Subcarpathian Voivodeship
1054,52.705000942,20.741095243,Ciechanów County,Masovian Voivodeship
1055,52.442397963,21.600944813,Wołomin County,Masovian Voivodeship
1056,52.212915403,19.940275581,Łowicz County,Łódzkie Voivodship
1057,50.709751024,18.587557295,Lubliniec County,Silesian Voivodeship
1058,53.403711307,20.217147407,Nidzica County,Warmian-Masurian Voivodeship
1059,54.090583523,19.335315515,Elbląg County,Warmian-Masurian Voivodeship
1060,50.456877244,20.332561375,Pińczów County,Świętokrzyskie Voivodeship
1061,51.434070434,20.554233519,Przysucha County,Masovian Voivodeship
1062,54.292824967,21.245522737,Kętrzyn County,Warmian-Masurian Voivodeship
1063,51.477384739,23.312955175,Włodawa County,Lublin Voivodeship
1064,51.348629911,23.479896164,Chełm County,Lublin Voivodeship
1065,51.282574688,16.444997315,Wołów County,Lower Silesian Voivodeship
1066,53.379542784,22.926067527,Mońki County,Podlaskie Voivodeship
1067,53.127999664,14.769207942,Pyrzyce County,West Pomeranian Voivodeship
1068,52.168254652,17.0427382,Poznań County,Greater Poland Voivodeship
1069,53.956707711,19.428414922,Elbląg County,Warmian-Masurian Voivodeship
1070,50.242543678,19.888677157,Kraków County,Lesser Poland Voivodeship
1071,50.703879985,21.362437149,Opatów County,Świętokrzyskie Voivodeship
1072,52.828763406,23.455877917,Hajnówka County,Podlaskie Voivodeship
1073,53.317027792,22.998706812,Mońki County,Podlaskie Voivodeship
1074,52.290222017,16.149122029,Nowy Tomyśl County,Greater Poland Voivodeship
1075,53.94236392,22.945797207,Augustów County,Podlaskie Voivodeship
1076,53.382576493,19.817014098,Nowe Miasto County,Warmian-Masurian Voivodeship
1077,51.210270565,17.06760848,Trzebnica County,Lower Silesian Voivodeship
1078,51.966208459,15.783264197,Zielona Góra County,Lubusz Voivodeship
1079,53.177486922,19.437586096,Brodnica County,Kuyavian-Pomeranian Voivodeship
1080,53.44317732,19.739771803,Nowe Miasto County,Warmian-Masurian Voivodeship
1081,51.476970187,18.964395384,Łask County,Łódzkie Voivodship
1082,52.752356761,15.143945978,Gorzów County,Lubusz Voivodeship
1083,52.467754323,19.25472929,Włocławek County,Kuyavian-Pomeranian Voivodeship
1084,50.666760954,23.539705064,Zamość County,Lublin Voivodeship
1085,51.118712045,15.017447747,Zgorzelec County,Lower Silesian Voivodeship
1086,54.035183614,22.75721841,Suwałki County,Podlaskie Voivodeship
1087,54.423454509,17.361609407,Słupsk County,Pomeranian Voivodeship
1088,52.69570087,16.324823725,Szamotuły County,Greater Poland Voivodeship
1089,50.441577925,20.500087506,Pińczów County,Świętokrzyskie Voivodeship
1090,50.669132585,23.050169634,Zamość County,Lublin Voivodeship
1091,52.212965161,21.896956058,Mińsk County,Masovian Voivodeship
1092,52.713630455,21.043057346,Pułtusk County,Masovian Voivodeship
1093,52.43986407,19.605234245,Płock County,Masovian Voivodeship
1094,51.582202872,17.183510617,Rawicz County,Greater Poland Voivodeship
1095,52.408141382,16.637865477,Poznań County,Greater Poland Voivodeship
1096,51.339571326,23.243065886,Włodawa County,Lublin Voivodeship
1097,53.407265872,19.275954467,Nowe Miasto County,Warmian-Masurian Voivodeship
1098,54.140102787,22.447072433,Olecko County,Warmian-Masurian Voivodeship
1099,52.76038523,23.253245236,Bielsk County,Podlaskie Voivodeship
1100,51.651660834,15.946076218,Głogów County,Lower Silesian Voivodeship
1101,53.336132077,17.717152075,Bydgoszcz County,Kuyavian-Pomeranian Voivodeship
1102,54.471308841,16.842925311,Słupsk County,Pomeranian Voivodeship
1103,50.912203043,21.817820455,Opatów County,Świętokrzyskie Voivodeship
1104,52.523951477,20.935342942,Legionowo County,Masovian Voivodeship
1105,52.456265777,19.846649032,Płock County,Masovian Voivodeship
1106,54.112823659,15.34103572,Gryfice County,West Pomeranian Voivodeship
1107,50.356029346,18.721185752,Tarnowskie Góry County,Silesian Voivodeship
1108,50.79112206,21.757999151,Sandomierz County,Świętokrzyskie Voivodeship
1109,53.013429853,15.742898434,Choszczno County,West Pomeranian Voivodeship
1110,54.438918952,17.984752134,Wejherowo County,Pomeranian Voivodeship
1111,50.308117285,18.146540492,Kędzierzyn-Koźle County,Opole Voivodeship
1112,50.021788653,19.504387614,Wadowice County,Lesser Poland Voivodeship
1113,51.456748641,23.013608902,Parczew County,Lublin Voivodeship
1114,53.045175489,15.447891291,Choszczno County,West Pomeranian Voivodeship
1115,50.970657481,22.96201855,Krasnystaw County,Lublin Voivodeship
1116,51.326834688,23.034664778,Łęczna County,Lublin Voivodeship
1117,51.41212819,19.328717902,Bełchatów County,Łódzkie Voivodship
1118,51.654953421,20.518239321,Grójec County,Masovian Voivodeship
1119,52.26084849,19.122676456,Kutno County,Łódzkie Voivodship
1120,54.096041892,23.212059645,Sejny County,Podlaskie Voivodeship
1121,51.420939788,16.551189645,Wołów County,Lower Silesian Voivodeship
1122,49.908853588,19.116568466,Bielsko County,Silesian Voivodeship
1123,54.276686264,21.023247909,Bartoszyce County,Warmian-Masurian Voivodeship
1124,50.450326106,19.790240839,Zawiercie County,Silesian Voivodeship
1125,52.4183394,19.4223951,Gostynin County,Masovian Voivodeship
1126,51.05954662,22.319600214,Lublin County,Lublin Voivodeship
1127,50.475757352,18.573040039,Gliwice County,Silesian Voivodeship
1128,52.221199676,15.728270671,Świebodzin County,Lubusz Voivodeship
1129,51.107019577,16.678618539,Środa Śląska County,Lower Silesian Voivodeship
1130,52.809812723,16.549932482,Czarnków-Trzcianka County,Greater Poland Voivodeship
1131,53.304911753,17.349274552,Piła County,Greater Poland Voivodeship
1132,53.952082113,20.998934388,Olsztyn County,Warmian-Masurian Voivodeship
1133,52.601750774,22.87387168,Siemiatycze County,Podlaskie Voivodeship
1134,52.129231326,21.459366524,Otwock County,Masovian Voivodeship
1135,50.226910299,18.753846829,Gliwice County,Silesian Voivodeship
1136,53.375791209,20.33204456,Nidzica County,Warmian-Masurian Voivodeship
1137,52.862043703,20.8101732,Ciechanów County,Masovian Voivodeship
1138,51.067697062,17.878167739,Namysłów County,Opole Voivodeship
1139,50.334331726,19.00043779,Piekary Śląskie,Silesian Voivodeship
1140,52.050796818,22.06066616,Siedlce County,Masovian Voivodeship
1141,52.227324385,18.850000499,Koło County,Greater Poland Voivodeship
1142,50.677775603,21.442122968,Sandomierz County,Świętokrzyskie Voivodeship
1143,53.300908733,23.63621594,Sokółka County,Podlaskie Voivodeship
1144,51.166552649,21.274393482,Radom County,Masovian Voivodeship
1145,50.231182448,18.698121886,Gliwice,Silesian Voivodeship
1146,51.98806851,18.1569459,Konin County,Greater Poland Voivodeship
1147,52.400648733,20.696246138,Nowy Dwór Mazowiecki County,Masovian Voivodeship
1148,53.514623179,18.296043581,Świecie County,Kuyavian-Pomeranian Voivodeship
1149,50.349299141,19.911139148,powiat miechowski,Lesser Poland Voivodeship
1150,51.861014763,17.344835975,Krotoszyn County,Greater Poland Voivodeship
1151,52.066634088,16.616307735,Kościan County,Greater Poland Voivodeship
1152,54.273677071,21.645191625,Węgorzewo County,Warmian-Masurian Voivodeship
1153,50.991519876,23.723050983,Chełm County,Lublin Voivodeship
1154,51.694709476,15.806564744,Nowa Sól County,Lubusz Voivodeship
1155,53.954208416,15.259732561,Gryfice County,West Pomeranian Voivodeship
1156,51.427745844,23.268968138,Włodawa County,Lublin Voivodeship
1157,51.287568235,16.676119151,Wołów County,Lower Silesian Voivodeship
1158,50.6363016,17.008975149,Ząbkowice Śląskie County,Lower Silesian Voivodeship
1159,53.340768647,18.958478608,Wąbrzeźno County,Kuyavian-Pomeranian Voivodeship
1160,52.534629174,18.852492301,Włocławek County,Kuyavian-Pomeranian Voivodeship
1161,50.608188955,20.852292892,Busko County,Świętokrzyskie Voivodeship
1162,50.838813717,18.554221234,Olesno County,Opole Voivodeship
1163,51.663897111,14.903742638,Żary County,Lubusz Voivodeship
1164,53.103550642,22.781551927,Wysokie Mazowieckie County,Podlaskie Voivodeship
1165,54.193045533,21.342623353,Kętrzyn County,Warmian-Masurian Voivodeship
1166,52.834362562,22.399612994,Wysokie Mazowieckie County,Podlaskie Voivodeship
1167,50.495459985,19.6857886,Zawiercie County,Silesian Voivodeship
1168,50.186125176,18.57692949,Gliwice County,Silesian Voivodeship
1169,50.728116967,23.788984737,Hrubieszów County,Lublin Voivodeship
1170,51.852919416,20.124260578,Skierniewice County,Łódzkie Voivodship
1171,52.735006638,18.833459954,Aleksandrów County,Kuyavian-Pomeranian Voivodeship
1172,50.583013702,17.284924387,Nysa County,Opole Voivodeship
1173,53.248758461,17.671263561,Nakło County,Kuyavian-Pomeranian Voivodeship
1174,50.862251487,19.188832173,Częstochowa County,Silesian Voivodeship
1175,50.461583525,20.077255385,powiat miechowski,Lesser Poland Voivodeship
1176,51.456565206,18.757220145,Sieradz County,Łódzkie Voivodship
1177,52.784726202,16.993028433,Oborniki County,Greater Poland Voivodeship
1178,52.717067052,17.220272836,Wągrowiec County,Greater Poland Voivodeship
1179,51.889387084,23.377041448,Biała Podlaska County,Lublin Voivodeship
1180,51.358888192,16.369232305,Lubin County,Lower Silesian Voivodeship
1181,51.67613058,21.812844224,Garwolin County,Masovian Voivodeship
1182,50.779655477,17.315691931,Brzeg County,Opole Voivodeship
1183,54.027939865,20.33912518,Olsztyn County,Warmian-Masurian Voivodeship
1184,51.966384491,17.098724992,Śrem County,Greater Poland Voivodeship
1185,50.876786393,21.808723206,Opatów County,Świętokrzyskie Voivodeship
1186,53.208397455,19.504857536,Brodnica County,Kuyavian-Pomeranian Voivodeship
1187,53.846705197,15.246307716,Gryfice County,West Pomeranian Voivodeship
1188,49.929262648,22.505243584,Jarosław County,Subcarpathian Voivodeship
1189,51.354158888,16.455087911,Lubin County,Lower Silesian Voivodeship
1190,54.494909621,17.37439539,Słupsk County,Pomeranian Voivodeship
1191,50.648546681,17.664962526,Opole County,Opole Voivodeship
1192,50.387469303,18.046996748,Kędzierzyn-Koźle County,Opole Voivodeship
1193,49.817698265,21.854752303,Strzyżów County,Subcarpathian Voivodeship
1194,50.580926256,17.02906992,Ząbkowice Śląskie County,Lower Silesian Voivodeship
1195,52.595389551,17.43772561,Gniezno County,Greater Poland Voivodeship
1196,51.124680949,23.209578971,Chełm County,Lublin Voivodeship
1197,53.385552793,23.694241368,Sokółka County,Podlaskie Voivodeship
1198,51.554269913,18.659809935,Sieradz County,Łódzkie Voivodship
1199,52.605905798,18.866916109,Włocławek County,Kuyavian-Pomeranian Voivodeship
1200,51.939779936,16.626796589,Leszno County,Greater Poland Voivodeship
1201,50.323356389,19.792159393,Olkusz County,Lesser Poland Voivodeship
1202,51.691836644,15.864257011,Głogów County,Lower Silesian Voivodeship
1203,50.418796722,20.352623318,Pińczów County,Świętokrzyskie Voivodeship
1204,53.425067729,19.279837289,Nowe Miasto County,Warmian-Masurian Voivodeship
1205,51.059904735,17.991724103,Kluczbork County,Opole Voivodeship
1206,52.429348248,17.202654046,Poznań County,Greater Poland Voivodeship
1207,52.465524911,18.80888358,Włocławek County,Kuyavian-Pomeranian Voivodeship
1208,51.346050125,23.186449636,Łęczna County,Lublin Voivodeship
1209,53.175245511,20.132312847,Działdowo County,Warmian-Masurian Voivodeship
1210,52.752449132,21.774103571,Ostrów Mazowiecka County,Masovian Voivodeship
1211,52.143380663,17.15630584,Środa Wielkopolska County,Greater Poland Voivodeship
1212,52.543754181,22.736629703,Siemiatycze County,Podlaskie Voivodeship
1213,50.934129421,20.468143689,Kielce County,Świętokrzyskie Voivodeship
1214,51.721817611,15.984359452,Głogów County,Lower Silesian Voivodeship
1215,51.068527062,23.222384862,Krasnystaw County,Lublin Voivodeship
1216,52.720617653,17.161326854,Wągrowiec County,Greater Poland Voivodeship
1217,52.141791087,19.924319252,Łowicz County,Łódzkie Voivodship
1218,52.133616862,16.039520775,Wolsztyn County,Greater Poland Voivodeship
1219,51.902946397,14.784113564,Krosno Odrzańskie County,Lubusz Voivodeship
1220,51.448672369,18.117857331,Ostrzeszów County,Greater Poland Voivodeship
1221,51.015654464,22.047112497,Kraśnik County,Lublin Voivodeship
1222,50.100452618,20.848623155,Tarnów County,Lesser Poland Voivodeship
1223,51.300470951,16.447516315,Wołów County,Lower Silesian Voivodeship
1224,50.425653567,17.203931597,Nysa County,Opole Voivodeship
1225,50.106074195,22.552152124,Przeworsk County,Subcarpathian Voivodeship
1226,53.832654649,15.153168879,Gryfice County,West Pomeranian Voivodeship
1227,53.974720899,15.201168505,Gryfice County,West Pomeranian Voivodeship
1228,53.842636237,14.910669708,Kamień County,West Pomeranian Voivodeship
1229,52.952023009,15.107888567,Myślibórz County,West Pomeranian Voivodeship
1230,53.14659963,15.190852619,Stargard County,West Pomeranian Voivodeship
1231,54.001855605,17.164559865,Człuchów County,Pomeranian Voivodeship
1232,54.14580707,15.805839181,Colberg County,West Pomeranian Voivodeship
1233,51.72833383,16.537558768,Góra County,Lower Silesian Voivodeship
1234,51.084719084,16.102008925,Jawor County,Lower Silesian Voivodeship
1235,51.890334955,16.210963241,Leszno County,Greater Poland Voivodeship
1236,53.009527097,16.849609397,Chodzież County,Greater Poland Voivodeship
1237,51.1144728,16.220662601,Jawor County,Lower Silesian Voivodeship
1238,51.882289328,15.655869613,Nowa Sól County,Lubusz Voivodeship
1239,54.150432233,16.082992945,Koszalin County,West Pomeranian Voivodeship
1240,54.008108368,16.736345426,Koszalin County,West Pomeranian Voivodeship
1241,51.738245864,16.015602703,Głogów County,Lower Silesian Voivodeship
1242,51.756150699,16.017988937,Głogów County,Lower Silesian Voivodeship
1243,54.487892152,17.18692588,Słupsk County,Pomeranian Voivodeship
1244,51.539667441,16.68415973,Góra County,Lower Silesian Voivodeship
1245,51.738088084,16.684425661,Leszno County,Greater Poland Voivodeship
1246,52.216929851,15.815829224,Świebodzin County,Lubusz Voivodeship
1247,52.434935905,16.139740902,Nowy Tomyśl County,Greater Poland Voivodeship
1248,50.811875971,17.920399591,Opole County,Opole Voivodeship
1249,51.097572688,17.969519425,Kluczbork County,Opole Voivodeship
1250,52.079299158,18.144259845,Konin County,Greater Poland Voivodeship
1251,50.335381437,17.755315723,Prudnik County,Opole Voivodeship
1252,50.418237799,17.033041627,Nysa County,Opole Voivodeship
1253,50.954722115,17.114367871,Oława County,Lower Silesian Voivodeship
1254,54.119695211,18.693825483,Tczew County,Pomeranian Voivodeship
1255,51.551147682,17.671716807,Ostrów Wielkopolski County,Greater Poland Voivodeship
1256,50.000413298,17.897231369,Głubczyce County,Opole Voivodeship
1257,51.938311497,17.825742928,Pleszew County,Greater Poland Voivodeship
1258,50.391652396,17.170450519,Nysa County,Opole Voivodeship
1259,52.449936343,18.272006298,Konin County,Greater Poland Voivodeship
1260,51.160407415,17.289931589,Wrocław County,Lower Silesian Voivodeship
1261,52.589850948,17.525861481,Gniezno County,Greater Poland Voivodeship
1262,51.190130959,17.668814884,Oleśnica County,Lower Silesian Voivodeship
1263,52.790330492,17.202595682,Wągrowiec County,Greater Poland Voivodeship
1264,52.487652631,18.249442205,Mogilno County,Kuyavian-Pomeranian Voivodeship
1265,50.24852943,17.966859299,Kędzierzyn-Koźle County,Opole Voivodeship
1266,50.586572264,17.228678279,Brzeg County,Opole Voivodeship
1267,51.900672201,17.848422369,Pleszew County,Greater Poland Voivodeship
1268,50.761779832,17.312881577,Brzeg County,Opole Voivodeship
1269,50.854738397,17.270394935,Oława County,Lower Silesian Voivodeship
1270,52.703968714,17.992270235,Mogilno County,Kuyavian-Pomeranian Voivodeship
1271,52.445096259,17.530706791,Gniezno County,Greater Poland Voivodeship
1272,51.98426074,17.101560911,Śrem County,Greater Poland Voivodeship
1273,51.255889927,17.766329921,Kępno County,Greater Poland Voivodeship
1274,50.060128009,18.07586236,Racibórz County,Silesian Voivodeship
1275,53.547203317,18.606501748,Świecie County,Kuyavian-Pomeranian Voivodeship
1276,53.303090217,17.379139553,Piła County,Greater Poland Voivodeship
1277,50.8119597,18.177587184,Opole County,Opole Voivodeship
1278,50.753852371,17.710823255,Brzeg County,Opole Voivodeship
1279,53.394237906,17.364646077,Sępólno County,Kuyavian-Pomeranian Voivodeship
1280,50.272356078,19.753210745,Kraków County,Lesser Poland Voivodeship
1281,51.531358677,16.827760273,Trzebnica County,Lower Silesian Voivodeship
1282,50.865419752,17.386362513,Brzeg County,Opole Voivodeship
1283,52.066570334,17.231970455,Śrem County,Greater Poland Voivodeship
1284,52.37779575,18.524836963,Konin County,Greater Poland Voivodeship
1285,52.586955706,18.119505211,Mogilno County,Kuyavian-Pomeranian Voivodeship
1286,51.41629075,21.686518345,Zwoleń County,Masovian Voivodeship
1287,50.361676758,18.155805031,Kędzierzyn-Koźle County,Opole Voivodeship
1288,50.357590185,20.623490536,Busko County,Świętokrzyskie Voivodeship
1289,52.078950739,20.234757461,Skierniewice County,Łódzkie Voivodship
1290,51.985060065,20.272062437,Żyrardów County,Masovian Voivodeship
1291,52.251166282,19.475447753,Kutno County,Łódzkie Voivodship
1292,50.49030971,19.087255764,Tarnowskie Góry County,Silesian Voivodeship
1293,50.400193789,18.615954678,Gliwice County,Silesian Voivodeship
1294,50.59652368,20.39210146,Jędrzejów County,Świętokrzyskie Voivodeship
1295,50.906624142,18.853436576,Kłobuck County,Silesian Voivodeship
1296,50.912783291,21.269794982,Ostrowiec County,Świętokrzyskie Voivodeship
1297,51.925962808,19.905670539,Łowicz County,Łódzkie Voivodship
1298,53.902341912,22.097423877,Giżycko County,Warmian-Masurian Voivodeship
1299,54.285192502,22.272399973,Gołdap County,Warmian-Masurian Voivodeship
1300,51.170367082,22.640426409,Lublin County,Lublin Voivodeship
1301,54.373620258,22.83127601,Suwałki County,Podlaskie Voivodeship
1302,53.170036449,22.497090934,Białystok County,Podlaskie Voivodeship
1303,51.799848344,22.877411461,Radzyń Podlaski County,Lublin Voivodeship
1304,50.781215442,23.342025382,Zamość County,Lublin Voivodeship
1305,51.944650822,22.031836054,Łuków County,Lublin Voivodeship
1306,51.041311011,22.488667734,Lublin County,Lublin Voivodeship
1307,51.341744315,22.571435672,Lublin County,Lublin Voivodeship
1308,51.24617366,23.42018266,Chełm County,Lublin Voivodeship
1309,51.353231629,22.633050229,Lublin County,Lublin Voivodeship
1310,51.07374946,19.259884267,Radomsko County,Łódzkie Voivodship
1311,52.223980195,19.5878643,Kutno County,Łódzkie Voivodship
1312,49.906621076,19.144229989,Bielsko County,Silesian Voivodeship
1313,50.235254133,19.972136304,Kraków County,Lesser Poland Voivodeship
1314,53.545035608,19.824182176,Iława County,Warmian-Masurian Voivodeship
1315,51.373291705,20.220431251,Opoczno County,Łódzkie Voivodship
1316,52.687850955,20.527232158,Płońsk County,Masovian Voivodeship
1317,54.246668557,20.953041737,Bartoszyce County,Warmian-Masurian Voivodeship
1318,52.814731506,20.528030344,Ciechanów County,Masovian Voivodeship
1319,51.041449161,21.61960126,Ostrowiec County,Świętokrzyskie Voivodeship
1320,54.051781812,22.420495195,Olecko County,Warmian-Masurian Voivodeship
1321,50.179856729,22.54338016,Leżajsk County,Subcarpathian Voivodeship
1322,50.253440783,23.334023197,Lubaczów County,Subcarpathian Voivodeship
1323,50.77582184,23.542872057,Zamość County,Lublin Voivodeship
1324,50.676665087,23.45603451,Zamość County,Lublin Voivodeship
1325,52.854321364,22.556378153,Wysokie Mazowieckie County,Podlaskie Voivodeship
1326,53.063282602,23.316699717,Białystok County,Podlaskie Voivodeship
1327,52.837756399,21.074747282,Maków County,Masovian Voivodeship
1328,51.541596194,19.064440303,Łask County,Łódzkie Voivodship
1329,53.95658188,20.537254334,Olsztyn County,Warmian-Masurian Voivodeship
1330,53.095447377,19.329132658,Rypin County,Kuyavian-Pomeranian Voivodeship
1331,50.354528182,22.933439017,Biłgoraj County,Lublin Voivodeship
1332,54.056415892,19.543520194,Elbląg County,Warmian-Masurian Voivodeship
1333,54.071837125,19.577916888,Elbląg County,Warmian-Masurian Voivodeship
1334,51.091048232,21.4873834,Lipsko County,Masovian Voivodeship
1335,50.479682411,20.480136161,Pińczów County,Świętokrzyskie Voivodeship
1336,54.049381178,22.264509217,Olecko County,Warmian-Masurian Voivodeship
1337,52.345611891,21.843490165,Węgrów County,Masovian Voivodeship
1338,50.884586822,19.795940016,Włoszczowa County,Świętokrzyskie Voivodeship
1339,54.11937344,21.353445655,Kętrzyn County,Warmian-Masurian Voivodeship
1340,50.607885262,19.423814276,Myszków County,Silesian Voivodeship
1341,51.203478402,21.080469713,Starachowice County,Świętokrzyskie Voivodeship
1342,52.893033683,20.667453685,Ciechanów County,Masovian Voivodeship
1343,52.837155361,20.683723009,Ciechanów County,Masovian Voivodeship
1344,50.487219981,20.196757749,powiat miechowski,Lesser Poland Voivodeship
1345,51.819959612,20.498277629,Rawa County,Łódzkie Voivodship
1346,51.656312285,21.279784899,Kozienice County,Masovian Voivodeship
1347,50.441329087,20.10135858,powiat miechowski,Lesser Poland Voivodeship
1348,51.819551355,18.740167484,Poddębice County,Łódzkie Voivodship
1349,54.233006946,21.104828438,Kętrzyn County,Warmian-Masurian Voivodeship
1350,52.496805255,18.874564211,Włocławek County,Kuyavian-Pomeranian Voivodeship
1351,50.591893346,24.00788244,Hrubieszów County,Lublin Voivodeship
1352,52.870245102,22.228732628,Ostrów Mazowiecka County,Masovian Voivodeship
1353,51.857133407,22.687112537,Radzyń Podlaski County,Lublin Voivodeship
1354,49.729999778,22.819724482,Przemyśl County,Subcarpathian Voivodeship
1355,52.651514888,22.918754371,Bielsk County,Podlaskie Voivodeship
1356,51.020882555,21.643310511,Ostrowiec County,Świętokrzyskie Voivodeship
1357,52.699432692,22.120337637,Ostrów Mazowiecka County,Masovian Voivodeship
1358,52.946980467,22.190069899,Zambrów County,Podlaskie Voivodeship
1359,50.839190668,23.15628822,Zamość County,Lublin Voivodeship
1360,52.109789556,22.01744012,Siedlce County,Masovian Voivodeship
1361,50.528309655,23.93102555,Tomaszów Lubelski County,Lublin Voivodeship
1362,53.044290223,22.824567752,Wysokie Mazowieckie County,Podlaskie Voivodeship
1363,51.469223552,22.402025879,Lubartów County,Lublin Voivodeship
1364,53.355509803,22.979923939,Mońki County,Podlaskie Voivodeship
1365,50.314125655,22.807920965,Biłgoraj County,Lublin Voivodeship
1366,49.374276807,22.584815904,Bieszczady County,Subcarpathian Voivodeship
1367,51.033456314,23.677470964,Chełm County,Lublin Voivodeship
1368,53.018436927,22.725789755,Wysokie Mazowieckie County,Podlaskie Voivodeship
1369,51.410167453,22.941612112,Lubartów County,Lublin Voivodeship
1370,51.737575912,19.7763092,County Lodzki,Łódzkie Voivodship
1371,51.290660478,21.305156721,Radom County,Masovian Voivodeship
1372,52.349562018,19.822773431,Gostynin County,Masovian Voivodeship
1373,51.010821854,18.672303068,Olesno County,Opole Voivodeship
1374,50.129091285,20.147653459,Kraków County,Lesser Poland Voivodeship
1375,50.609164303,20.252022718,Jędrzejów County,Świętokrzyskie Voivodeship
1376,50.849218421,18.413042117,Olesno County,Opole Voivodeship
1377,53.530537639,15.056077944,Goleniów County,West Pomeranian Voivodeship
1378,51.873291672,19.219393463,Zgierz County,Łódzkie Voivodship
1379,51.941649401,21.883308968,Łuków County,Lublin Voivodeship
1380,50.734848687,23.73316579,Hrubieszów County,Lublin Voivodeship
1381,53.817354834,20.256376818,Olsztyn County,Warmian-Masurian Voivodeship
1382,52.372030134,16.307942726,Nowy Tomyśl County,Greater Poland Voivodeship
1383,52.13437258,18.389770461,Turek County,Greater Poland Voivodeship
1384,53.009079899,23.147933466,Białystok County,Podlaskie Voivodeship
1385,53.68868931,23.268290264,Sokółka County,Podlaskie Voivodeship
1386,52.60701656,22.484782922,Siemiatycze County,Podlaskie Voivodeship
1387,51.991808597,16.663754746,Kościan County,Greater Poland Voivodeship
1388,52.239018414,21.636460012,Mińsk County,Masovian Voivodeship
1389,53.058771542,22.859290363,Wysokie Mazowieckie County,Podlaskie Voivodeship
1390,52.623623459,15.602871217,Międzyrzecz County,Lubusz Voivodeship
1391,50.782760031,22.85132319,Zamość County,Lublin Voivodeship
1392,50.774502117,22.762432892,Biłgoraj County,Lublin Voivodeship
1393,53.491092707,15.928071076,Drawsko County,West Pomeranian Voivodeship
1394,51.5809263,19.480066481,County Lodzki,Łódzkie Voivodship
1395,50.494384025,18.32083234,Strzelce County,Opole Voivodeship
1396,52.669719713,21.691623964,Wyszków County,Masovian Voivodeship
1397,51.251208758,17.563734652,Oleśnica County,Lower Silesian Voivodeship
1398,50.734594579,17.992809715,Opole County,Opole Voivodeship
1399,52.380416542,19.443934016,Gostynin County,Masovian Voivodeship
1400,51.898115291,23.616813599,Biała Podlaska County,Lublin Voivodeship
1401,52.254145051,17.115268077,Poznań County,Greater Poland Voivodeship
1402,50.771310502,20.058525564,Włoszczowa County,Świętokrzyskie Voivodeship
1403,50.484104193,18.460970291,Strzelce County,Opole Voivodeship
1404,53.398770594,23.085125695,Mońki County,Podlaskie Voivodeship
1405,52.877200646,22.683982081,Wysokie Mazowieckie County,Podlaskie Voivodeship
1406,50.897807728,21.237307765,Ostrowiec County,Świętokrzyskie Voivodeship
1407,52.413898624,22.75858882,Siemiatycze County,Podlaskie Voivodeship
1408,50.903301407,21.181006146,Ostrowiec County,Świętokrzyskie Voivodeship
1409,53.581163823,19.131180816,Grudziądz County,Kuyavian-Pomeranian Voivodeship
1410,51.00616224,15.119532967,Zgorzelec County,Lower Silesian Voivodeship
1411,51.813921575,21.525463026,Garwolin County,Masovian Voivodeship
1412,50.750579578,22.813501626,Zamość County,Lublin Voivodeship
1413,52.400709304,18.707016606,Włocławek County,Kuyavian-Pomeranian Voivodeship
1414,54.14984643,21.020446415,Bartoszyce County,Warmian-Masurian Voivodeship
1415,50.368485251,16.65835511,Kłodzko County,Lower Silesian Voivodeship
1416,50.950916764,18.747130573,Kłobuck County,Silesian Voivodeship
1417,51.153096056,15.82412048,Złotoryja County,Lower Silesian Voivodeship
1418,53.315284878,23.181668701,Białystok County,Podlaskie Voivodeship
1419,51.436658453,20.525724621,Przysucha County,Masovian Voivodeship
1420,50.956597698,21.915957392,Opole Lubelskie County,Lublin Voivodeship
1421,51.358127675,18.622495648,Wieluń County,Łódzkie Voivodship
1422,53.494056455,17.503182462,Sępólno County,Kuyavian-Pomeranian Voivodeship
1423,53.370698714,20.178823431,Działdowo County,Warmian-Masurian Voivodeship
1424,53.627763089,19.232781384,Iława County,Warmian-Masurian Voivodeship
1425,53.324519189,19.40947363,Brodnica County,Kuyavian-Pomeranian Voivodeship
1426,52.963828135,23.710953733,Białystok County,Podlaskie Voivodeship
1427,52.890304979,17.90688759,Żnin County,Kuyavian-Pomeranian Voivodeship
1428,50.224737627,20.877245934,Dąbrowa County,Lesser Poland Voivodeship
1429,50.963669009,18.577345914,Olesno County,Opole Voivodeship
